     2.11           OBSERVATION DATA    M (MIXED)           RINEX VERSION / TYPE
TPP                 Reference Data Shop 04-JUL-18 01:00     PGM / RUN BY / DATE 
MTLD                                                        MARKER NAME         
Maitland                                                    MARKER NUMBER       
CORSnet-NSW         NSW                                     OBSERVER / AGENCY   
                    TRIMBLE NETR9                           REC # / TYPE / VERS 
1912118025          TRM57971.00     NONE                    ANT # / TYPE        
 -4722246.3590  2557539.8900 -3429486.2010                  APPROX POSITION XYZ 
        0.0000        0.0000        0.0000                  ANTENNA: DELTA H/E/N
     1     1     0                                          WAVELENGTH FACT L1/2
    14    C1    P1    L1    D1    S1    C2    P2    L2    D2# / TYPES OF OBSERV 
          S2    C5    L5    D5    S5                        # / TYPES OF OBSERV 
     5.000                                                  INTERVAL            
     0                                                      RCV CLOCK OFFS APPL 
    18                                                      LEAP SECONDS        
  2018    07    01    00    00   00.0000000     GPS         TIME OF FIRST OBS   
                                                            END OF HEADER       
 18 07 01  0  0  0.0000000  0 19G01G08G10G11G14G18G20G22G27G31G32R05 0.000000000
                                R06R07R15R16R20R21R22       
  23832827.203                   125242353.99215                        39.500  
                  23832833.422    97591446.48116                        25.500  
                                                                
  23275369.484                   122312866.29916                        44.500  
                  23275376.883    95308722.93817                        31.000  
                                                                
  21835836.258                   114748098.71217                        48.300  
                  21835841.977    89414098.68918                        36.500  
                                                                
  23537425.625                   123690006.92916                        46.300  
                  23537428.824    96381823.80417                        30.000  
                                                                
  20077863.172                   105509892.86316                        46.500  
                  20077865.852    82215506.68818                        39.000  
                                                                
  22037755.672                   115809190.10617                        47.500  
                  22037759.750    90240931.18818                        35.500  
                                                                
  23461867.203                   123292929.94315                        41.000  
                  23461870.422    96072417.24516                        22.500  
                                                                
  23958837.164                   125904553.84413                        37.000  
                  23958839.504    98107444.93216                        22.000  
                                                                
  23699840.820                   124543481.93015                        41.000  
                  23699848.141    97046862.06116                        26.000  
                                                                
  22137941.711                   116335688.82517                        49.000  
                  22137946.973    90651190.45018                        36.300  
                                                                
  20864999.078                   109646319.31117                        49.800  
                  20865005.039    85438692.75919                        42.000  
                                                                
  21482661.219                   114837125.89216                        41.300  
                  21482663.777    89317780.19917                        28.500  
                                                                
  20429750.547                   109017070.12115                        39.500  
                                                                                
                                                                
  23121066.211                   123768889.66916                        42.000  
                  23121069.191    96264700.41518                        39.800  
                                                                
  22242420.273                   118856774.53916                        42.500  
                  22242425.434    92444165.31818                        35.000  
                                                                
  22133590.375                   118233696.55315                        39.800  
                  22133594.113    91959547.20018                        38.000  
                                                                
  21559711.344                   115289459.30216                        42.000  
                  21559716.742    89669575.58319                        44.300  
                                                                
  20193596.625                   108060005.08718                        49.800  
                  20193598.926    84046662.96319                        48.000  
                                                                
  23051301.406                   123049422.73214                        39.000  
                  23051305.168    95705104.36718                        39.800  
                                                                
 18 07 01  0  0  5.0000000  0 19G01G08G10G11G14G18G20G22G27G31G32R05 0.000000000
                                R06R07R15R16R20R21R22       
  23829646.578                   125225640.433 5      3342.376          39.500  
                  23829653.418    97578422.949 6      2604.455          26.000  
                                                                
  23277162.930                   122322291.914 6     -1885.906          45.000  
                  23277170.828    95316067.566 7     -1469.529          30.500  
                                                                
  21837284.758                   114755711.540 7     -1522.938          49.000  
                  21837290.617    89420030.753 8     -1186.705          37.000  
                                                                
  23535570.906                   123680261.321 6      1948.310          45.500  
                  23535574.227    96374229.826 7      1518.163          30.000  
                                                                
  20077713.406                   105509107.482 6       156.035          46.500  
                  20077716.305    82214894.709 8       121.586          39.800  
                                                                
  22035533.797                   115797514.234 7      2334.418          47.500  
                  22035537.938    90231833.102 8      1819.029          35.500  
                                                                
  23463989.625                   123304084.613 5     -2231.243          40.500  
                  23463992.586    96081109.184 6     -1738.615          23.300  
                                                                
  23956235.102                   125890874.587 4      2735.858          37.800  
                  23956236.121    98096785.773 6      2131.842          22.800  
                                                                
  23702641.766                   124558199.337 5     -2943.611          40.500  
                  23702648.965    97058330.174 6     -2293.731          25.500  
                                                                
  22135342.195                   116322027.606 7      2731.591          49.500  
                  22135346.676    90640545.363 8      2128.510          36.300  
                                                                
  20866521.578                   109654321.038 7     -1600.999          49.300  
                  20866527.020    85444927.871 9     -1247.526          41.500  
                                                                
  21484394.602                   114846391.813 6     -1853.262          41.300  
                  21484397.402    89324987.026 7     -1441.434          28.300  
                                                                
  20429337.367                   109014865.178 5       440.684          40.000  
                                                                                
                                                                
  23119044.289                   123758075.207 6      2162.649          41.300  
                  23119048.668    96256289.156 8      1682.067          39.800  
                                                                
  22242591.711                   118857685.214 6      -183.794          42.500  
                  22242596.270    92444873.626 8      -142.947          35.000  
                                                                
  22130523.977                   118217313.334 4      3275.957          39.000  
                  22130527.656    91946804.696 8      2547.969          38.000  
                                                                
  21563409.938                   115309229.338 6     -3954.773          42.300  
                  21563414.516    89684952.267 9     -3075.939          44.300  
                                                                
  20193996.531                   108062145.934 8      -429.985          49.500  
                  20193998.953    84048328.066 9      -334.429          48.300  
                                                                
  23048174.352                   123032728.205 4      3337.846          38.300  
                  23048177.711    95692119.730 8      2596.104          39.000  
                                                                
 18 07 01  0  0 10.0000000  0 19G01G08G10G11G14G18G20G22G27G31G32R05 0.000000000
                                R06R07R15R16R20R21R22       
  23826466.922                   125208931.257 5      3341.422          39.800  
                  23826473.582    97565402.814 6      2603.720          25.500  
                                                                
  23278958.586                   122331726.950 6     -1887.801          44.500  
                  23278966.324    95323419.549 7     -1471.020          31.500  
                                                                
  21838733.758                   114763329.034 7     -1523.913          48.500  
                  21838740.219    89425966.465 8     -1187.467          37.300  
                                                                
  23533718.602                   123670525.827 6      1946.237          45.500  
                  23533721.840    96366643.721 7      1516.550          29.500  
                                                                
  20077565.945                   105508335.050 6       153.408          46.000  
                  20077569.324    82214292.815 8       119.538          39.000  
                                                                
  22033313.633                   115785847.745 7      2332.505          47.800  
                  22033317.414    90222742.329 8      1817.531          35.500  
                                                                
  23466113.742                   123315243.171 5     -2232.087          39.500  
                  23466116.121    96089804.163 6     -1739.291          22.000  
                                                                
  23953631.820                   125877195.257 4      2735.806          39.000  
                  23953633.699    98086126.561 6      2131.801          22.800  
                                                                
  23705442.445                   124572918.250 5     -2943.960          40.500  
                  23705448.906    97069799.455 6     -2293.999          24.500  
                                                                
  22132744.375                   116308374.519 7      2729.909          49.500  
                  22132748.734    90629906.602 8      2127.196          36.000  
                                                                
  20868045.680                   109662330.944 7     -1602.699          49.500  
                  20868051.398    85451169.365 9     -1248.863          42.300  
                                                                
  21486126.477                   114855658.855 6     -1853.559          41.500  
                  21486130.676    89332194.724 7     -1441.663          27.500  
                                                                
  20428924.805                   109012664.807 5       439.617          39.500  
                                                                                
                                                                
  23117025.250                   123747263.798 6      2161.990          41.500  
                  23117029.172    96247880.286 8      1681.548          40.000  
                                                                
  22242765.250                   118858616.524 6      -187.954          42.000  
                  22242770.148    92445597.964 8      -146.176          35.500  
                                                                
  22127457.438                   118200938.771 5      3274.181          39.500  
                  22127461.797    91934068.936 8      2546.587          37.500  
                                                                
  21567107.961                   115329008.823 6     -3956.688          42.500  
                  21567113.039    89700336.293 9     -3077.421          44.300  
                                                                
  20194401.070                   108064309.532 8      -434.584          49.800  
                  20194403.629    84050010.857 9      -338.010          47.500  
                                                                
  23045048.547                   123016047.140 4      3335.099          37.300  
                  23045052.969    95679145.584 8      2593.970          39.000  
                                                                
 18 07 01  0  0 15.0000000  0 19G01G08G10G11G14G18G20G22G27G31G32R05 0.000000000
                                R06R07R15R16R20R21R22       
  23823288.578                   125192226.668 5      3340.502          40.000  
                  23823294.879    97552386.255 7      2602.983          26.500  
                                                                
  23280755.266                   122341171.741 6     -1889.784          44.800  
                  23280762.824    95330779.121 7     -1472.559          31.300  
                                                                
  21840184.680                   114770951.521 7     -1524.953          48.500  
                  21840191.039    89431906.058 8     -1188.277          37.500  
                                                                
  23531867.547                   123660800.848 6      1944.100          45.500  
                  23531870.867    96359065.819 7      1514.887          29.500  
                                                                
  20077422.266                   105507575.881 6       150.728          46.800  
                  20077424.844    82213701.259 8       117.444          38.800  
                                                                
  22031095.477                   115774190.955 7      2330.524          47.300  
                  22031099.258    90213659.116 8      1815.993          36.000  
                                                                
  23468237.984                   123326405.880 5     -2232.946          41.300  
                  23468240.043    96098502.378 6     -1739.964          22.500  
                                                                
  23951028.844                   125863516.197 4      2735.711          38.800  
                  23951030.582    98075467.556 6      2131.723          22.300  
                                                                
  23708244.039                   124587638.984 5     -2944.341          40.800  
                  23708250.438    97081270.155 7     -2294.292          26.800  
                                                                
  22130147.992                   116294729.928 7      2728.183          50.300  
                  22130151.891    90619274.459 8      2125.861          36.000  
                                                                
  20869571.961                   109670349.301 7     -1604.402          49.300  
                  20869577.520    85457417.429 9     -1250.183          43.000  
                                                                
  21487860.602                   114864927.229 5     -1853.821          40.800  
                  21487864.723    89339403.447 7     -1441.844          27.300  
                                                                
  20428514.023                   109010469.223 5       438.720          40.000  
                                                                                
                                                                
  23115005.828                   123736455.724 5      2161.303          40.500  
                  23115009.770    96239474.002 8      1681.015          40.000  
                                                                
  22242944.453                   118859568.669 6      -192.138          42.300  
                  22242948.754    92446338.527 8      -149.434          35.000  
                                                                
  22124394.734                   118184572.835 5      3272.410          39.800  
                  22124397.914    91921339.883 8      2545.208          37.000  
                                                                
  21570808.820                   115348798.076 6     -3958.666          42.300  
                  21570813.781    89715727.936 9     -3078.967          44.300  
                                                                
  20194809.625                   108066496.098 8      -439.219          49.300  
                  20194812.203    84051711.508 9      -341.612          47.300  
                                                                
  23041926.672                   122999379.904 4      3332.310          37.500  
                  23041929.973    95666182.173 8      2591.803          38.500  
                                                                
 18 07 01  0  0 20.0000000  0 19G01G08G10G11G14G18G20G22G27G31G32R05 0.000000000
                                R06R07R15R16R20R21R22       
  23820110.445                   125175526.468 5      3339.704          39.500  
                  23820116.785    97539373.116 6      2602.363          26.000  
                                                                
  23282554.625                   122350626.038 6     -1891.626          45.500  
                  23282561.566    95338146.104 7     -1473.990          30.300  
                                                                
  21841635.578                   114778578.680 7     -1525.797          48.000  
                  21841642.199    89437849.293 8     -1188.927          37.300  
                                                                
  23530019.141                   123651086.024 6      1942.125          45.300  
                  23530022.402    96351495.830 7      1513.336          29.500  
                                                                
  20077280.391                   105506829.685 7       148.192          47.300  
                  20077282.789    82213119.808 8       115.474          38.500  
                                                                
  22028879.234                   115762543.615 6      2328.688          46.500  
                  22028882.875    90204583.267 8      1814.560          36.000  
                                                                
  23470362.742                   123337572.471 5     -2233.663          40.000  
                  23470364.684    96107203.601 6     -1740.513          22.300  
                                                                
  23948426.039                   125849837.177 4      2735.798          38.800  
                  23948427.359    98064808.575 6      2131.778          22.800  
                                                                
  23711045.742                   124602361.202 5     -2944.580          40.500  
                  23711052.383    97092742.009 6     -2294.480          26.000  
                                                                
  22127553.156                   116281093.570 7      2726.588          49.500  
                  22127557.156    90608648.724 8      2124.616          36.500  
                                                                
  20871099.383                   109678375.852 7     -1605.989          49.000  
                  20871105.102    85463671.889 9     -1251.428          42.500  
                                                                
  21489596.039                   114874196.696 6     -1853.973          41.500  
                  21489598.719    89346613.030 7     -1441.987          27.000  
                                                                
  20428102.547                   109008277.935 5       437.856          40.000  
                                                                                
                                                                
  23112988.805                   123725650.626 5      2160.783          40.000  
                  23112992.023    96231070.023 8      1680.611          39.800  
                                                                
  22243126.773                   118860541.444 6      -196.194          42.800  
                  22243131.074    92447095.138 8      -152.599          34.800  
                                                                
  22121333.156                   118168215.516 5      3270.770          39.500  
                  22121335.836    91908617.519 8      2543.934          37.500  
                                                                
  21574511.797                   115368596.783 6     -3960.554          42.500  
                  21574516.398    89731126.924 9     -3080.431          44.500  
                                                                
  20195222.828                   108068705.360 8      -443.690          49.500  
                  20195225.066    84053429.823 9      -345.092          47.500  
                                                                
  23038806.484                   122982726.069 3      3329.646          36.800  
                  23038810.563    95653229.199 8      2589.729          39.000  
                                                                
 18 07 01  0  0 25.0000000  0 19G01G08G10G11G14G18G20G22G27G31G32R05 0.000000000
                                R06R07R15R16R20R21R22       
  23816933.445                   125158830.886 5      3338.734          40.000  
                  23816939.324    97526363.580 7      2601.601          27.000  
                                                                
  23284355.242                   122360090.016 6     -1893.597          45.300  
                  23284362.863    95345520.634 7     -1475.524          29.800  
                                                                
  21843088.297                   114786210.778 7     -1526.832          47.500  
                  21843094.719    89443796.382 8     -1189.741          37.500  
                                                                
  23528172.445                   123641381.626 6      1940.025          45.500  
                  23528175.625    96343933.958 7      1511.693          30.300  
                                                                
  20077140.508                   105506096.723 6       145.504          46.800  
                  20077143.609    82212548.668 8       113.380          39.000  
                                                                
  22026664.656                   115750905.927 7      2326.746          47.500  
                  22026668.715    90195514.936 8      1813.051          36.000  
                                                                
  23472488.164                   123348743.192 5     -2234.491          40.000  
                  23472489.723    96115908.030 6     -1741.147          22.500  
                                                                
  23945822.742                   125836158.399 4      2735.719          39.000  
                  23945824.461    98054149.790 6      2131.725          22.000  
                                                                
  23713847.461                   124617085.144 5     -2944.959          40.500  
                  23713854.660    97104215.194 6     -2294.773          24.800  
                                                                
  22124959.570                   116267465.621 7      2724.907          50.000  
                  22124963.531    90598029.543 8      2123.300          36.500  
                                                                
  20872628.422                   109686410.775 7     -1607.673          49.000  
                  20872634.582    85469932.866 9     -1252.736          43.000  
                                                                
  21491329.578                   114883467.673 5     -1854.304          40.800  
                  21491333.117    89353823.773 7     -1442.229          27.800  
                                                                
  20427692.727                   109006091.251 5       436.986          39.800  
                                                                                
                                                                
  23110970.867                   123714848.797 5      2160.101          40.300  
                  23110974.328    96222668.613 8      1680.074          40.800  
                                                                
  22243311.531                   118861535.112 6      -200.423          42.500  
                  22243317.410    92447867.989 8      -155.883          36.000  
                                                                
  22118272.977                   118151866.968 5      3269.026          39.800  
                  22118274.855    91895901.998 8      2542.578          37.500  
                                                                
  21578215.359                   115388405.227 6     -3962.476          42.300  
                  21578220.418    89746533.483 9     -3081.922          44.000  
                                                                
  20195638.906                   108070937.574 8      -448.294          49.500  
                  20195641.688    84055165.996 9      -348.673          47.300  
                                                                
  23035688.891                   122966085.969 3      3326.865          35.800  
                  23035693.770    95640286.917 8      2587.554          38.800  
                                                                
 18 07 01  0  0 30.0000000  0 19G01G08G10G11G14G18G20G22G27G31G32R05 0.000000000
                                R06R07R15R16R20R21R22       
  23813756.961                   125142139.727 5      3337.830          40.300  
                  23813763.563    97513357.486 7      2600.903          26.300  
                                                                
  23286158.383                   122369563.452 6     -1895.494          44.500  
                  23286165.504    95352902.528 7     -1477.008          30.500  
                                                                
  21844541.375                   114793847.640 6     -1527.789          46.500  
                  21844547.414    89449747.178 8     -1190.480          37.500  
                                                                
  23526327.688                   123631687.544 6      1937.942          45.500  
                  23526330.688    96336380.134 7      1510.084          29.500  
                                                                
  20077003.648                   105505376.801 6       142.890          46.500  
                  20077006.527    82211987.685 8       111.349          39.000  
                                                                
  22024451.813                   115739277.692 6      2324.823          47.000  
                  22024456.074    90186453.980 8      1811.550          35.800  
                                                                
  23474614.320                   123359917.880 5     -2235.295          40.000  
                  23474615.961    96124615.596 6     -1741.792          22.500  
                                                                
  23943219.461                   125822479.717 4      2735.677          39.000  
                  23943221.039    98043491.076 6      2131.686          23.800  
                                                                
  23716649.563                   124631810.636 5     -2945.277          40.800  
                  23716657.063    97115689.610 7     -2295.015          26.500  
                                                                
  22122368.156                   116253845.991 7      2723.222          49.000  
                  22122372.035    90587416.848 8      2121.987          36.000  
                                                                
  20874159.000                   109694453.943 7     -1609.320          49.000  
                  20874164.441    85476200.263 9     -1254.020          42.300  
                                                                
  21493064.422                   114892739.727 6     -1854.548          41.500  
                  21493068.160    89361035.375 7     -1442.428          26.300  
                                                                
  20427283.367                   109003909.147 5       435.991          39.500  
                                                                                
                                                                
  23108954.266                   123704050.174 5      2159.448          40.800  
                  23108956.785    96214269.673 8      1679.571          40.500  
                                                                
  22243502.672                   118862549.597 6      -204.591          43.000  
                  22243506.934    92448657.035 8      -159.125          35.800  
                                                                
  22115212.953                   118135527.065 5      3267.210          39.500  
                  22115216.492    91883193.183 8      2541.165          37.500  
                                                                
  21581921.781                   115408223.110 6     -3964.380          42.300  
                  21581926.082    89761947.377 9     -3083.404          44.000  
                                                                
  20196060.227                   108073192.578 8      -452.859          49.500  
                  20196063.328    84056919.899 9      -352.226          47.500  
                                                                
  23032575.484                   122949459.505 3      3324.122          36.300  
                  23032579.023    95627355.248 8      2585.430          38.800  
                                                                
 18 07 01  0  0 35.0000000  0 19G01G08G10G11G14G18G20G22G27G31G32R05 0.000000000
                                R06R07R15R16R20R21R22       
  23810581.922                   125125453.092 5      3336.961          40.000  
                  23810587.762    97500354.914 7      2600.225          26.300  
                                                                
  23287962.844                   122379046.468 6     -1897.391          44.000  
                  23287969.863    95360291.885 7     -1478.486          29.500  
                                                                
  21845996.078                   114801489.305 6     -1528.742          46.300  
                  21846001.777    89455701.728 8     -1191.232          37.000  
                                                                
  23524484.703                   123622003.743 6      1935.916          45.300  
                  23524487.805    96328834.313 7      1508.512          29.000  
                                                                
  20076868.852                   105504669.923 6       140.304          46.500  
                  20076871.910    82211436.880 8       109.324          39.000  
                                                                
  22022240.711                   115727659.019 6      2322.967          46.800  
                  22022245.371    90177400.477 8      1810.100          35.300  
                                                                
  23476741.641                   123371096.586 5     -2236.075          39.800  
                  23476743.180    96133326.265 6     -1742.398          22.500  
                                                                
  23940616.844                   125808801.128 4      2735.700          39.000  
                  23940618.605    98032832.441 6      2131.717          22.500  
                                                                
  23719451.563                   124646537.668 5     -2945.547          40.300  
                  23719459.543    97127165.211 6     -2295.236          25.500  
                                                                
  22119777.711                   116240234.684 7      2721.583          48.800  
                  22119781.570    90576810.643 8      2120.710          36.000  
                                                                
  20875690.820                   109702505.346 7     -1610.952          48.800  
                  20875696.781    85482474.079 9     -1255.285          41.300  
                                                                
  21494800.063                   114902013.113 6     -1854.775          41.500  
                  21494802.262    89368248.010 6     -1442.601          25.800  
                                                                
  20426875.063                   109001731.569 5       435.150          39.300  
                                                                                
                                                                
  23106937.867                   123693254.444 5      2158.840          40.500  
                  23106940.309    96205872.995 8      1679.098          40.000  
                                                                
  22243695.375                   118863584.896 6      -208.776          43.000  
                  22243700.355    92449462.273 8      -162.383          35.500  
                                                                
  22112155.680                   118119195.918 4      3265.532          37.800  
                  22112158.719    91870491.186 8      2539.854          37.500  
                                                                
  21585629.578                   115428050.522 6     -3966.227          42.000  
                  21585633.938    89777368.692 9     -3084.841          44.000  
                                                                
  20196486.008                   108075470.344 7      -457.397          49.000  
                  20196488.949    84058691.486 9      -355.749          47.500  
                                                                
  23029463.789                   122932846.645 4      3321.482          37.800  
                  23029466.289    95614434.137 8      2583.366          39.500  
                                                                
 18 07 01  0  0 40.0000000  0 19G01G08G10G11G14G18G20G22G27G31G32R05 0.000000000
                                R06R07R15R16R20R21R22       
  23807407.063                   125108771.051 5      3336.007          40.500  
                  23807413.563    97487355.922 6      2599.490          25.500  
                                                                
  23289769.125                   122388539.001 6     -1899.262          43.800  
                  23289775.863    95367688.652 7     -1479.946          30.800  
                                                                
  21847450.953                   114809135.815 6     -1529.712          46.300  
                  21847456.754    89461660.041 8     -1191.987          37.500  
                                                                
  23522644.141                   123612330.332 6      1933.819          45.500  
                  23522646.941    96321296.588 7      1506.874          29.800  
                                                                
  20076737.031                   105503976.161 6       137.682          47.000  
                  20076739.930    82210896.287 8       107.278          38.500  
                                                                
  22020031.891                   115716050.009 6      2321.002          46.800  
                  22020035.949    90168354.489 8      1808.575          35.500  
                                                                
  23478870.125                   123382279.351 5     -2236.882          39.800  
                  23478871.324    96142040.100 6     -1743.002          21.500  
                                                                
  23938014.039                   125795122.767 4      2735.627          38.800  
                  23938015.617    98022173.994 6      2131.651          22.800  
                                                                
  23722255.563                   124661266.327 5     -2945.886          41.000  
                  23722262.121    97138642.057 6     -2295.492          26.000  
                                                                
  22117189.336                   116226631.833 7      2719.854          48.300  
                  22117193.234    90566211.017 8      2119.371          35.800  
                                                                
  20877224.539                   109710565.052 7     -1612.621          49.000  
                  20877230.320    85488754.363 9     -1256.585          42.300  
                                                                
  21496535.563                   114911287.752 6     -1855.058          41.800  
                  21496537.223    89375461.616 7     -1442.821          27.000  
                                                                
  20426469.563                   108999558.528 5       434.214          39.500  
                                                                                
                                                                
  23104923.305                   123682461.975 6      2158.222          41.500  
                  23104924.285    96197478.850 8      1678.617          41.000  
                                                                
  22243892.492                   118864641.289 6      -212.973          43.300  
                  22243897.793    92450283.914 8      -165.646          35.000  
                                                                
  22109100.234                   118102873.510 4      3263.780          38.500  
                  22109103.133    91857795.992 8      2538.494          37.000  
                                                                
  21589340.016                   115447887.490 6     -3968.182          42.500  
                  21589343.797    89792797.440 9     -3086.366          43.500  
                                                                
  20196916.352                   108077771.048 7      -461.999          48.800  
                  20196918.891    84060480.906 9      -359.328          47.500  
                                                                
  23026353.352                   122916247.573 4      3318.671          37.300  
                  23026357.512    95601523.743 8      2581.189          39.800  
                                                                
 18 07 01  0  0 45.0000000  0 19G01G08G10G11G14G18G20G22G27G31G32R05 0.000000000
                                R06R07R15R16R20R21R22       
  23804233.219                   125092093.539 5      3335.150          41.000  
                  23804239.820    97474360.454 6      2598.810          25.500  
                                                                
  23291577.430                   122398041.051 6     -1901.169          44.300  
                  23291584.148    95375092.835 7     -1481.420          31.000  
                                                                
  21848907.094                   114816787.191 6     -1530.658          46.800  
                  21848912.516    89467622.140 8     -1192.716          37.500  
                                                                
  23520804.688                   123602667.288 6      1931.777          45.500  
                  23520807.469    96313766.948 7      1505.269          29.000  
                                                                
  20076607.531                   105503295.516 6       135.089          47.000  
                  20076610.512    82210365.908 8       105.268          39.300  
                                                                
  22017824.492                   115704450.625 7      2319.094          47.300  
                  22017828.594    90159316.010 8      1807.087          35.500  
                                                                
  23480998.344                   123393466.195 5     -2237.712          39.800  
                  23480999.484    96150757.103 6     -1743.666          21.800  
                                                                
  23935411.023                   125781444.535 4      2735.632          39.000  
                  23935412.504    98011515.636 6      2131.649          22.500  
                                                                
  23725057.945                   124675996.577 5     -2946.183          41.500  
                  23725064.887    97150120.189 7     -2295.727          26.800  
                                                                
  22114601.656                   116213037.408 7      2718.201          49.000  
                  22114605.938    90555617.969 8      2118.075          35.800  
                                                                
  20878760.023                   109718633.039 7     -1614.252          48.800  
                  20878765.645    85495041.107 9     -1257.857          42.000  
                                                                
  21498268.703                   114920563.647 5     -1855.267          41.000  
                  21498271.883    89382676.203 7     -1442.983          27.800  
                                                                
  20426061.664                   108997390.167 5       433.299          39.500  
                                                                                
                                                                
  23102906.547                   123671672.666 6      2157.652          41.500  
                  23102909.387    96189087.167 8      1678.170          40.500  
                                                                
  22244094.234                   118865718.452 6      -217.109          43.300  
                  22244099.414    92451121.700 8      -168.858          35.800  
                                                                
  22106045.773                   118086559.897 4      3262.007          39.000  
                  22106049.133    91845107.631 8      2537.118          37.300  
                                                                
  21593050.375                   115467733.963 6     -3970.045          43.000  
                  21593055.297    89808233.575 9     -3087.809          44.000  
                                                                
  20197349.984                   108080094.545 8      -466.526          50.000  
                  20197353.664    84062288.070 9      -362.851          47.300  
                                                                
  23023247.305                   122899662.156 4      3316.008          37.800  
                  23023250.586    95588623.991 8      2579.117          39.800  
                                                                
 18 07 01  0  0 50.0000000  0 19G01G08G10G11G14G18G20G22G27G31G32R05 0.000000000
                                R06R07R15R16R20R21R22       
  23801060.281                   125075420.630 5      3334.228          41.300  
                  23801067.520    97461368.582 7      2598.083          26.800  
                                                                
  23293387.727                   122407552.597 6     -1903.027          45.500  
                  23293394.566    95382504.437 7     -1482.874          30.300  
                                                                
  21850364.039                   114824443.399 6     -1531.606          46.800  
                  21850369.758    89473588.019 8     -1193.464          37.300  
                                                                
  23518968.727                   123593014.590 6      1929.738          45.300  
                  23518970.926    96306245.370 7      1503.692          29.500  
                                                                
  20076480.445                   105502627.984 6       132.464          46.300  
                  20076483.246    82209845.751 8       103.218          39.000  
                                                                
  22015619.117                   115692860.854 6      2317.184          46.300  
                  22015622.738    90150285.020 8      1805.602          36.000  
                                                                
  23483127.805                   123404657.000 4     -2238.451          39.000  
                  23483129.645    96159477.211 6     -1744.221          22.500  
                                                                
  23932808.164                   125767766.445 4      2735.622          38.500  
                  23932809.926    98000857.408 6      2131.621          22.800  
                                                                
  23727861.820                   124690728.328 5     -2946.443          41.000  
                  23727868.121    97161599.467 7     -2295.928          26.500  
                                                                
  22112016.852                   116199451.384 7      2716.556          49.000  
                  22112020.191    90545031.463 8      2116.799          35.800  
                                                                
  20880296.781                   109726709.246 7     -1615.874          49.000  
                  20880302.500    85501334.257 9     -1259.122          42.000  
                                                                
  21500004.203                   114929840.787 5     -1855.502          41.000  
                  21500007.965    89389891.757 7     -1443.164          28.300  
                                                                
  20425657.625                   108995226.165 5       432.445          39.500  
                                                                                
                                                                
  23100892.172                   123660886.542 6      2156.975          42.500  
                  23100894.953    96180697.975 8      1677.651          41.000  
                                                                
  22244300.734                   118866816.328 6      -221.213          43.300  
                  22244305.254    92451975.608 8      -172.055          35.000  
                                                                
  22102993.539                   118070255.003 4      3260.295          39.000  
                  22102996.758    91832426.046 8      2535.785          37.300  
                                                                
  21596764.133                   115487589.906 6     -3971.949          43.000  
                  21596768.031    89823677.081 9     -3089.288          43.800  
                                                                
  20197788.109                   108082440.820 8      -471.045          49.500  
                  20197792.031    84064112.963 9      -366.368          47.000  
                                                                
  23020142.430                   122883090.474 4      3313.243          37.300  
                  23020146.129    95575734.915 8      2576.973          40.800  
                                                                
 18 07 01  0  0 55.0000000  0 19G01G08G10G11G14G18G20G22G27G31G32R05 0.000000000
                                R06R07R15R16R20R21R22       
  23797888.844                   125058752.283 5      3333.314          40.300  
                  23797895.344    97448380.257 6      2597.379          24.800  
                                                                
  23295199.125                   122417073.608 6     -1904.974          44.300  
                  23295206.344    95389923.408 7     -1484.395          30.500  
                                                                
  21851822.219                   114832104.432 7     -1532.600          48.500  
                  21851827.520    89479557.651 8     -1194.235          37.500  
                                                                
  23517133.266                   123583372.322 6      1927.634          45.500  
                  23517136.344    96298731.903 7      1502.054          29.800  
                                                                
  20076355.430                   105501973.504 6       129.836          46.500  
                  20076358.391    82209335.770 8       101.175          39.500  
                                                                
  22013415.055                   115681280.643 6      2315.242          47.000  
                  22013419.395    90141261.478 8      1804.087          35.800  
                                                                
  23485258.766                   123415851.892 5     -2239.305          39.800  
                  23485260.066    96168200.507 6     -1744.905          22.000  
                                                                
  23930204.805                   125754088.497 4      2735.566          38.800  
                  23930207.484    97990199.277 6      2131.596          24.500  
                                                                
  23730664.461                   124705461.658 5     -2946.803          40.500  
                  23730671.801    97173079.988 7     -2296.223          26.500  
                                                                
  22109433.031                   116185873.804 7      2714.835          48.500  
                  22109436.410    90534451.530 8      2115.450          36.000  
                                                                
  20881835.484                   109734793.706 7     -1617.552          49.300  
                  20881840.805    85507633.836 9     -1260.430          42.300  
                                                                
  21501739.641                   114939119.291 5     -1855.809          41.000  
                  21501743.301    89397108.365 6     -1443.399          26.000  
                                                                
  20425252.086                   108993066.918 5       431.479          40.000  
                                                                                
                                                                
  23098878.227                   123650103.486 6      2156.348          43.300  
                  23098880.086    96172311.151 8      1677.160          41.000  
                                                                
  22244508.930                   118867935.090 6      -225.408          43.500  
                  22244514.551    92452845.760 8      -175.323          35.000  
                                                                
  22099943.477                   118053959.005 5      3258.460          39.500  
                  22099947.078    91819751.385 8      2534.351          37.800  
                                                                
  21600478.914                   115507455.336 6     -3973.842          42.300  
                  21600482.633    89839127.964 9     -3090.760          43.300  
                                                                
  20198231.852                   108084809.947 8      -475.647          49.800  
                  20198234.953    84065955.609 9      -369.952          47.500  
                                                                
  23017041.031                   122866532.534 4      3310.472          37.800  
                  23017043.910    95562856.529 8      2574.814          39.500  
                                                                
 18 07 01  0  1  0.0000000  0 19G01G08G10G11G14G18G20G22G27G31G32R05 0.000000000
                                R06R07R15R16R20R21R22       
  23794718.023                   125042088.452 5      3332.455          39.500  
                  23794724.664    97435395.440 7      2596.740          26.300  
                                                                
  23297012.789                   122426604.072 6     -1906.784          44.300  
                  23297020.270    95397349.735 7     -1485.800          30.500  
                                                                
  21853280.719                   114839770.244 7     -1533.493          48.800  
                  21853286.258    89485531.004 8     -1194.927          37.800  
                                                                
  23515301.086                   123573740.386 6      1925.626          45.800  
                  23515303.305    96291226.506 7      1500.486          29.500  
                                                                
  20076233.805                   105501332.050 6       127.311          46.300  
                  20076236.746    82208835.939 8        99.197          39.000  
                                                                
  22011213.711                   115669710.066 6      2313.422          46.500  
                  22011217.570    90132245.441 8      1802.674          36.000  
                                                                
  23487389.641                   123427050.719 5     -2239.982          39.800  
                  23487391.781    96176926.850 6     -1745.435          22.500  
                                                                
  23927602.141                   125740410.643 4      2735.598          38.500  
                  23927604.602    97979541.224 6      2131.614          22.800  
                                                                
  23733469.203                   124720196.423 5     -2947.027          39.800  
                  23733475.324    97184561.604 6     -2296.370          25.800  
                                                                
  22106850.938                   116172304.635 7      2713.214          49.000  
                  22106854.656    90523878.160 8      2114.193          36.000  
                                                                
  20883375.305                   109742886.350 7     -1619.134          49.000  
                  20883380.703    85513939.788 9     -1261.657          42.000  
                                                                
  21503476.797                   114948398.906 5     -1855.975          40.800  
                  21503479.578    89404325.846 7     -1443.542          27.800  
                                                                
  20424849.125                   108990911.974 5       430.708          39.500  
                                                                                
                                                                
  23096862.547                   123639323.489 6      2155.834          42.800  
                  23096866.469    96163926.707 8      1676.762          41.000  
                                                                
  22244723.195                   118869074.588 6      -229.493          43.800  
                  22244727.617    92453732.025 8      -178.490          35.300  
                                                                
  22096894.656                   118037671.802 5      3256.836          39.500  
                  22096897.957    91807083.579 8      2533.086          37.800  
                                                                
  21604196.195                   115527330.142 6     -3975.639          42.800  
                  21604200.074    89854586.132 9     -3092.159          44.000  
                                                                
  20198678.789                   108087201.846 8      -480.137          49.500  
                  20198681.949    84067815.967 9      -373.433          48.000  
                                                                
  23013941.391                   122849988.324 4      3307.819          38.500  
