     2.11           OBSERVATION DATA    M (MIXED)           RINEX VERSION / TYPE
TPP                 Reference Data Shop 04-JUL-18 01:00     PGM / RUN BY / DATE 
NEWE                                                        MARKER NAME         
Newcastle East                                              MARKER NUMBER       
CORSnet-NSW         NSW                                     OBSERVER / AGENCY   
                    LEICA GR30                              REC # / TYPE / VERS 
725070              LEIAR25.R4      LEIT                    ANT # / TYPE        
 -4722484.6480  2533368.6920 -3446900.9220                  APPROX POSITION XYZ 
        0.0000        0.0000        0.0000                  ANTENNA: DELTA H/E/N
     1     1     0                                          WAVELENGTH FACT L1/2
    14    C1    P1    L1    D1    S1    C2    P2    L2    D2# / TYPES OF OBSERV 
          S2    C5    L5    D5    S5                        # / TYPES OF OBSERV 
     5.000                                                  INTERVAL            
     0                                                      RCV CLOCK OFFS APPL 
    18                                                      LEAP SECONDS        
  2018    07    01    00    00   00.0000000     GPS         TIME OF FIRST OBS   
                                                            END OF HEADER       
 18 07 01  0  0  0.0000000  0 19G01G08G10G11G14G18G20G22G27G31G32R05 0.000000000
                                R06R07R15R16R20R21R22       
  23831416.766                   125234945.74217                        47.800  
                  23831418.906    97585683.86419                        42.000  
                                                                
  23299642.086                   122440422.14017                        50.300  
                  23299644.324    95408121.13819                        43.000  
                                                                
  21816398.359                   114645942.36218                        53.000  
                  21816399.918    89334506.54919                        47.000  
                                                                
  23542575.781                   123717063.73317                        49.500  
                  23542573.820    96402904.87618                        40.800  
                                                                
  20080371.766                   105523075.71417                        50.300  
                  20080369.824    82225763.69719                        49.500  
                                                                
  22039904.711                   115820486.86317                        51.500  
                  22039904.449    90249733.89119                        45.500  
                                                                
  23443875.961                   123198379.75617                        48.500  
                  23443874.699    95998737.78918                        39.500  
                                                                
  23968180.805                   125953640.96217                        48.300  
                  23968177.344    98145686.24719                        42.000  
                                                                
  23727968.625                   124691295.50416                        46.500  
                  23727971.203    97162043.53719                        42.500  
                                                                
  22146184.852                   116378990.14418                        54.500  
                  22146183.113    90684942.22819                        45.500  
                                                                
  20851918.102                   109577572.34018                        54.300  
                  20851919.262    85385118.00019                        49.800  
                                                                
  21457794.438                   114704208.68817                        47.500  
                  21457796.199    89214397.17217                        31.800  
                                                                
  20426543.688                   108999960.70616                        44.000  
                                                                                
                                                                
  23138956.867                   123864733.64317                        48.800  
                  23138958.168    96339180.61019                        42.500  
                                                                
  22215977.250                   118715467.59717                        47.800  
                  22215980.371    92334270.94818                        37.500  
                                                                
  22129696.414                   118212887.46716                        44.800  
                  22129699.695    91943376.91618                        39.800  
                                                                
  21581844.398                   115407801.38917                        47.000  
                  21581847.379    89761615.24019                        45.500  
                                                                
  20205769.469                   108125155.49018                        52.000  
                  20205771.008    84097354.96019                        48.500  
                                                                
  23044301.445                   123012046.07217                        49.000  
                  23044304.625    95676047.97319                        43.000  
                                                                
 18 07 01  0  0  5.0000000  0 19G01G08G10G11G14G18G20G22G27G31G32R05 0.000000000
                                R06R07R15R16R20R21R22       
  23828238.922                   125218245.836 7      3339.478          47.800  
                  23828241.082    97572670.950 9      2602.188          41.500  
                                                                
  23301447.445                   122449909.245 7     -1898.334          50.300  
                  23301449.645    95415513.681 9     -1479.217          42.800  
                                                                
  21817848.773                   114653564.323 8     -1524.906          53.000  
                  21817850.313    89340445.737 9     -1188.245          47.500  
                                                                
  23540733.047                   123707380.205 7      1935.758          49.000  
                  23540731.105    96395359.276 8      1508.385          41.000  
                                                                
  20080200.805                   105522177.365 7       178.506          50.300  
                  20080198.863    82225063.686 9       139.095          48.800  
                                                                
  22037690.734                   115808852.209 7      2326.042          51.500  
                  22037690.496    90240667.929 9      1812.498          45.000  
                                                                
  23446007.063                   123209578.630 7     -2240.232          48.000  
                  23446005.824    96007464.179 8     -1745.631          38.500  
                                                                
  23965565.023                   125939894.924 7      2749.064          48.300  
                  23965561.523    98134975.059 8      2142.132          40.800  
                                                                
  23730771.344                   124706024.063 6     -2945.965          46.000  
                  23730773.965    97173520.334 9     -2295.555          43.500  
                                                                
  22143572.773                   116365263.568 8      2744.534          54.500  
                  22143571.012    90674246.200 9      2138.600          45.300  
                                                                
  20853422.766                   109585479.267 8     -1582.170          54.300  
                  20853423.906    85391279.235 9     -1232.858          49.500  
                                                                
  21459520.617                   114713436.128 7     -1845.725          46.800  
                  21459522.316    89221574.066 7     -1435.564          32.000  
                                                                
  20426108.188                   108997636.712 6       464.318          43.500  
                                                                                
                                                                
  23136919.406                   123853826.732 7      2180.999          48.800  
                  23136920.707    96330697.464 9      1696.329          42.800  
                                                                
  22216142.453                   118716350.036 7      -178.284          47.300  
                  22216145.574    92334957.277 8      -138.664          37.800  
                                                                
  22126615.555                   118196430.045 7      3290.663          45.300  
                  22126618.875    91930576.707 8      2559.400          39.300  
                                                                
  21585550.273                   115427618.130 7     -3964.262          46.500  
                  21585553.215    89777028.261 9     -3083.313          45.500  
                                                                
  20206190.508                   108127408.862 8      -452.605          52.000  
                  20206192.109    84099107.585 9      -352.028          49.000  
                                                                
  23041187.227                   122995421.817 8      3323.644          49.300  
                  23041190.328    95663117.990 9      2585.061          43.000  
                                                                
 18 07 01  0  0 10.0000000  0 19G01G08G10G11G14G18G20G22G27G31G32R05 0.000000000
                                R06R07R15R16R20R21R22       
  23825061.945                   125201550.323 7      3338.779          47.300  
                  23825064.086    97559661.459 9      2601.650          42.800  
                                                                
  23303254.547                   122459405.735 7     -1900.019          49.800  
                  23303256.766    95422913.533 9     -1480.534          43.800  
                                                                
  21819300.133                   114661191.048 8     -1525.697          53.000  
                  21819301.633    89346388.644 9     -1188.853          47.800  
                                                                
  23538892.227                   123697706.862 7      1933.871          48.500  
                  23538890.285    96387821.610 9      1506.915          42.000  
                                                                
  20080032.305                   105521291.976 7       176.065          50.300  
                  20080030.363    82224373.772 9       137.193          49.500  
                                                                
  22035478.594                   115797227.049 7      2324.305          51.300  
                  22035478.332    90231609.366 9      1811.149          45.500  
                                                                
  23448138.867                   123220781.444 7     -2240.857          48.300  
                  23448137.668    96016193.634 8     -1746.127          40.000  
                                                                
  23962949.281                   125926148.905 7      2749.227          48.500  
                  23962945.680    98124263.873 8      2142.257          40.800  
                                                                
  23733574.359                   124720754.077 6     -2946.078          46.500  
                  23733576.961    97184998.261 9     -2295.649          43.000  
                                                                
  22140962.234                   116351545.096 8      2743.068          54.300  
                  22140960.453    90663556.491 9      2137.454          45.500  
                                                                
  20854928.984                   109593394.411 8     -1583.665          54.500  
                  20854930.125    85397446.880 9     -1234.025          49.800  
                                                                
  21461247.000                   114722664.771 7     -1845.810          46.500  
                  21461248.699    89228751.895 7     -1435.630          31.300  
                                                                
  20425673.523                   108995317.238 6       463.526          43.500  
                                                                                
                                                                
  23134882.445                   123842922.881 7      2180.552          48.500  
                  23134883.844    96322216.695 9      1695.987          43.300  
                                                                
  22216311.516                   118717253.148 7      -182.247          47.800  
                  22216314.715    92335659.699 8      -141.747          38.300  
                                                                
  22123536.313                   118179981.308 7      3289.119          45.300  
                  22123539.613    91917783.261 8      2558.204          39.500  
                                                                
  21589257.875                   115447444.267 7     -3965.949          46.800  
                  21589260.816    89792448.577 9     -3084.621          46.000  
                                                                
  20206615.789                   108129685.004 8      -456.993          51.800  
                  20206617.449    84100877.916 9      -355.437          48.800  
                                                                
  23038075.547                   122978811.157 7      3321.068          48.800  
                  23038078.566    95650198.583 9      2583.055          43.500  
                                                                
 18 07 01  0  0 15.0000000  0 19G01G08G10G11G14G18G20G22G27G31G32R05 0.000000000
                                R06R07R15R16R20R21R22       
  23821885.945                   125184859.960 7      3337.507          47.300  
                  23821888.105    97546655.985 9      2600.659          43.300  
                                                                
  23305063.609                   122468912.359 7     -1902.291          49.500  
                  23305065.809    95430321.297 9     -1482.305          43.300  
                                                                
  21820752.539                   114668823.262 8     -1527.034          53.300  
                  21820753.980    89352335.818 9     -1189.895          47.300  
                                                                
  23537053.523                   123688044.504 7      1931.446          49.500  
                  23537051.625    96380292.509 8      1505.023          40.300  
                                                                
  20079866.406                   105520420.284 7       173.090          50.500  
                  20079864.465    82223694.529 9       134.876          49.000  
                                                                
  22033268.352                   115785612.067 8      2322.035          52.300  
                  22033268.090    90222558.725 9      1809.382          45.500  
                                                                
  23450271.547                   123231988.892 7     -2242.029          48.300  
                  23450270.387    96024926.727 8     -1747.038          40.000  
                                                                
  23960333.664                   125912403.590 7      2748.846          47.800  
                  23960330.043    98113553.231 9      2141.956          42.500  
                                                                
  23736377.781                   124735486.309 6     -2946.766          46.500  
                  23736380.480    97196477.916 9     -2296.177          42.300  
                                                                
  22138353.391                   116337835.544 8      2741.045          54.000  
                  22138351.609    90652873.727 9      2135.877          45.500  
                                                                
  20856436.898                   109601318.522 8     -1585.683          54.500  
                  20856438.039    85403621.511 9     -1235.595          49.800  
                                                                
  21462973.758                   114731895.330 7     -1846.406          47.300  
                  21462975.438    89235931.206 7     -1436.096          32.000  
                                                                
  20425239.867                   108993003.097 6       462.277          43.500  
                                                                                
                                                                
  23132846.211                   123832022.727 7      2179.600          48.500  
                  23132847.750    96313738.789 9      1695.244          43.500  
                                                                
  22216484.609                   118718177.637 7      -186.754          48.500  
                  22216487.848    92336378.736 8      -145.253          38.300  
                                                                
  22120458.734                   118163541.645 7      3286.996          45.300  
                  22120462.016    91904996.859 8      2556.554          39.500  
                                                                
  21592967.438                   115467280.518 7     -3968.203          46.500  
                  21592970.316    89807876.764 9     -3086.376          45.800  
                                                                
  20207045.484                   108131984.560 8      -461.948          52.300  
                  20207047.184    84102666.447 9      -359.293          49.000  
                                                                
  23034966.531                   122962214.810 7      3317.983          48.300  
                  23034969.551    95637290.317 9      2580.653          44.000  
                                                                
 18 07 01  0  0 20.0000000  0 19G01G08G10G11G14G18G20G22G27G31G32R05 0.000000000
                                R06R07R15R16R20R21R22       
  23818710.602                   125168173.430 6      3337.029          46.800  
                  23818712.801    97533653.509 9      2600.280          42.300  
                                                                
  23306874.344                   122478427.802 7     -1903.773          49.500  
                  23306876.523    95437735.935 9     -1483.464          42.800  
                                                                
  21822205.734                   114676459.638 8     -1527.576          53.800  
                  21822207.133    89358286.240 9     -1190.315          47.000  
                                                                
  23535216.688                   123678391.743 7      1929.828          50.000  
                  23535214.746    96372770.868 8      1503.764          40.300  
                                                                
  20079702.867                   105519560.933 7       170.920          50.000  
                  20079700.945    82223024.913 9       133.182          49.000  
                                                                
  22031059.836                   115774006.011 7      2320.526          52.000  
                  22031059.555    90213515.047 9      1808.202          45.300  
                                                                
  23452404.867                   123243199.664 7     -2242.387          48.500  
                  23452403.727    96033662.371 8     -1747.314          39.500  
                                                                
  23957717.883                   125898657.681 7      2749.264          47.500  
                  23957714.305    98102842.146 9      2142.279          41.500  
                                                                
  23739181.383                   124750219.318 6     -2946.635          46.800  
                  23739184.102    97207958.181 9     -2296.081          41.800  
                                                                
  22135745.992                   116324133.551 8      2739.823          54.000  
                  22135744.191    90642196.852 9      2134.927          45.500  
                                                                
  20857946.266                   109609250.230 8     -1586.902          54.800  
                  20857947.406    85409802.062 9     -1236.547          49.500  
                                                                
  21464700.617                   114741126.434 7     -1846.235          46.800  
                  21464702.297    89243110.960 7     -1435.961          31.300  
                                                                
  20424806.883                   108990692.622 6       461.818          43.500  
                                                                                
                                                                
  23130810.391                   123821124.890 7      2179.415          48.000  
                  23130812.070    96305262.689 9      1695.105          43.500  
                                                                
  22216661.430                   118719122.165 7      -190.463          48.300  
                  22216664.711    92337113.360 8      -148.136          38.300  
                                                                
  22117382.734                   118147109.938 7      3285.749          45.500  
                  22117385.953    91892216.648 8      2555.578          39.500  
                                                                
  21596678.594                   115487125.483 7     -3969.666          46.300  
                  21596681.434    89823311.732 9     -3087.518          46.300  
                                                                
  20207479.266                   108134306.147 8      -466.047          52.300  
                  20207481.047    84104472.132 9      -362.481          49.000  
                                                                
  23031859.867                   122945631.339 7      3315.669          48.300  
                  23031862.945    95624392.095 9      2578.847          43.800  
                                                                
 18 07 01  0  0 25.0000000  0 19G01G08G10G11G14G18G20G22G27G31G32R05 0.000000000
                                R06R07R15R16R20R21R22       
  23815536.023                   125151490.989 6      3336.054          46.500  
                  23815538.285    97520654.218 9      2599.519          42.800  
                                                                
  23308686.789                   122487952.283 7     -1905.728          49.800  
                  23308688.969    95445157.597 9     -1484.981          42.800  
                                                                
  21823659.773                   114684100.417 8     -1528.608          53.800  
                  21823661.133    89364240.088 9     -1191.123          47.000  
                                                                
  23533381.742                   123668748.892 7      1927.684          50.500  
                  23533379.781    96365256.971 8      1502.089          40.800  
                                                                
  20079541.727                   105518714.205 7       168.237          50.300  
                  20079539.785    82222365.125 9       131.092          49.000  
                                                                
  22028853.055                   115762409.089 7      2318.548          51.800  
                  22028852.754    90204478.480 9      1806.661          45.500  
                                                                
  23454538.883                   123254414.041 7     -2243.256          48.500  
                  23454537.723    96042400.848 8     -1747.992          38.500  
                                                                
  23955102.039                   125884911.459 7      2749.174          47.800  
                  23955098.520    98092130.823 8      2142.208          41.000  
                                                                
  23741985.180                   124764953.395 7     -2947.006          47.500  
                  23741987.918    97219439.280 9     -2296.370          42.000  
                                                                
  22133140.055                   116310439.388 8      2738.113          54.300  
                  22133138.273    90631526.080 9      2133.594          45.800  
                                                                
  20859457.141                   109617189.795 8     -1588.642          54.500  
                  20859458.262    85415988.740 9     -1237.903          49.500  
                                                                
  21466427.680                   114750358.576 7     -1846.612          47.000  
                  21466429.379    89250291.511 7     -1436.250          32.000  
                                                                
  20424374.727                   108988386.250 6       460.860          43.500  
                                                                                
                                                                
  23128775.070                   123810229.684 7      2178.756          48.300  
                  23128776.871    96296788.638 9      1694.586          43.500  
                                                                
  22216842.094                   118720087.055 7      -194.722          48.800  
                  22216845.414    92337863.824 8      -151.448          38.300  
                                                                
  22114308.258                   118130686.452 7      3283.962          46.000  
                  22114311.457    91879442.830 8      2554.190          39.500  
                                                                
  21600391.414                   115506979.493 7     -3971.599          46.300  
                  21600394.254    89838753.755 9     -3089.028          46.000  
                                                                
  20207917.266                   108136650.104 8      -470.673          52.800  
                  20207919.086    84106295.208 9      -366.079          49.000  
                                                                
  23028755.789                   122929061.148 7      3312.866          48.800  
                  23028758.828    95611504.169 9      2576.676          43.300  
                                                                
 18 07 01  0  0 30.0000000  0 19G01G08G10G11G14G18G20G22G27G31G32R05 0.000000000
                                R06R07R15R16R20R21R22       
  23812362.680                   125134814.959 6      3334.935          46.300  
                  23812364.918    97507659.905 9      2598.648          42.300  
                                                                
  23310501.367                   122497488.034 7     -1907.809          49.800  
                  23310503.527    95452588.050 9     -1486.607          43.000  
                                                                
  21825115.094                   114691747.926 8     -1529.783          53.500  
                  21825116.414    89370199.188 9     -1192.041          47.300  
                                                                
  23531549.141                   123659118.275 7      1925.392          50.500  
                  23531547.121    96357752.587 8      1500.306          41.000  
                                                                
  20079383.445                   105517882.412 7       165.408          50.000  
                  20079381.504    82221716.973 9       128.889          49.500  
                                                                
  22026648.453                   115750823.559 7      2316.430          52.000  
                  22026648.133    90195450.793 9      1805.013          45.000  
                                                                
  23456674.047                   123265634.317 7     -2244.284          48.800  
                  23456672.848    96051143.908 8     -1748.799          39.300  
                                                                
  23952486.539                   125871167.208 7      2748.938          47.800  
                  23952483.059    98081421.015 8      2142.028          40.000  
                                                                
  23744789.664                   124779690.863 7     -2947.510          48.300  
                  23744792.383    97230923.005 9     -2296.757          41.300  
                                                                
  22130536.070                   116296755.378 8      2736.258          54.300  
                  22130534.270    90620863.217 9      2132.151          45.500  
                                                                
  20860969.945                   109625139.516 8     -1590.500          54.500  
                  20860971.023    85422183.325 9     -1239.348          49.800  
                                                                
  21468155.320                   114759593.804 7     -1847.037          46.800  
                  21468157.000    89257474.460 7     -1436.584          31.500  
                                                                
  20423943.742                   108986086.389 6       459.684          43.300  
                                                                                
                                                                
  23126740.727                   123799339.507 7      2177.921          48.800  
                  23126742.566    96288318.494 9      1693.941          43.300  
                                                                
  22217026.969                   118721074.687 7      -199.085          48.300  
                  22217030.367    92338631.987 8      -154.842          38.000  
                                                                
  22111235.734                   118114273.473 7      3281.974          45.800  
                  22111238.934    91866677.197 8      2552.643          39.300  
                                                                
  21604106.313                   115526844.807 7     -3973.711          46.300  
                  21604109.191    89854204.545 9     -3090.660          46.300  
                                                                
  20208359.906                   108139018.752 8      -475.441          52.300  
                  20208361.746    84108137.485 9      -369.787          49.000  
                                                                
  23025654.625                   122912506.625 7      3309.917          48.500  
                  23025657.645    95598628.421 9      2574.380          43.500  
                                                                
 18 07 01  0  0 35.0000000  0 19G01G08G10G11G14G18G20G22G27G31G32R05 0.000000000
                                R06R07R15R16R20R21R22       
  23809190.063                   125118142.831 6      3334.254          46.000  
                  23809192.363    97494668.633 9      2598.124          42.800  
                                                                
  23312317.625                   122507032.642 7     -1909.470          49.800  
                  23312319.805    95460025.396 9     -1487.896          43.300  
                                                                
  21826571.219                   114699399.657 8     -1530.532          53.500  
                  21826572.520    89376161.574 9     -1192.622          47.500  
                                                                
  23529718.383                   123649497.322 7      1923.553          50.800  
                  23529716.324    96350255.741 8      1498.871          41.000  
                                                                
  20079227.508                   105517062.970 7       163.043          50.000  
                  20079225.566    82221078.449 9       127.044          49.500  
                                                                
  22024445.555                   115739247.008 7      2314.743          51.800  
                  22024445.215    90186430.105 9      1803.698          45.300  
                                                                
  23458809.867                   123276857.982 7     -2244.856          48.800  
                  23458808.586    96059889.619 8     -1749.241          38.500  
                                                                
  23949870.961                   125857422.437 7      2749.130          47.300  
                  23949867.480    98070710.805 9      2142.181          41.500  
                                                                
  23747594.266                   124794429.133 7     -2947.581          47.800  
                  23747597.004    97242407.373 9     -2296.810          41.500  
                                                                
  22127933.531                   116283079.009 8      2734.810          54.300  
                  22127931.750    90610206.317 9      2131.019          45.500  
                                                                
  20862484.180                   109633096.848 8     -1591.926          54.300  
                  20862485.238    85428383.844 9     -1240.460          49.800  
                                                                
  21469883.117                   114768829.819 7     -1847.091          47.500  
                  21469884.816    89264658.023 7     -1436.622          32.500  
                                                                
  20423513.523                   108983790.423 6       459.049          42.800  
                                                                                
                                                                
  23124706.766                   123788451.541 7      2177.514          48.300  
                  23124708.625    96279850.089 9      1693.622          42.800  
                                                                
  22217215.609                   118722082.557 7      -203.068          47.500  
                  22217219.051    92339415.892 8      -157.946          38.000  
                                                                
  22108164.758                   118097868.633 7      3280.479          46.300  
                  22108167.898    91853917.881 8      2551.486          39.300  
                                                                
  21607822.859                   115546718.830 7     -3975.342          46.800  
                  21607825.758    89869662.118 9     -3091.931          46.000  
                                                                
  20208806.688                   108141409.466 8      -479.770          52.800  
                  20208808.508    84109996.925 9      -373.152          49.000  
                                                                
  23022555.906                   122895965.079 7      3307.411          47.800  
                  23022558.887    95585762.780 9      2572.431          43.300  
                                                                
 18 07 01  0  0 40.0000000  0 19G01G08G10G11G14G18G20G22G27G31G32R05 0.000000000
                                R06R07R15R16R20R21R22       
  23806017.742                   125101472.321 6      3333.666          46.500  
                  23806020.082    97481678.629 9      2597.666          42.800  
                                                                
  23314135.086                   122516583.679 7     -1911.046          49.000  
                  23314137.305    95467467.765 9     -1489.125          43.500  
                                                                
  21828027.695                   114707053.296 8     -1531.218          52.800  
                  21828028.977    89382125.442 9     -1193.159          47.800  
                                                                
  23527889.063                   123639883.781 7      1921.782          50.500  
                  23527886.922    96342764.664 8      1497.493          40.500  
                                                                
  20079073.484                   105516253.605 7       160.744          50.300  
                  20079071.523    82220447.777 9       125.255          49.300  
                                                                
  22022243.891                   115727677.122 7      2313.125          52.000  
                  22022243.551    90177414.612 9      1802.431          45.000  
                                                                
  23460945.867                   123288082.717 7     -2245.364          48.500  
                  23460944.566    96068636.162 8     -1749.634          39.300  
                                                                
  23947254.844                   125843674.820 7      2749.419          47.300  
                  23947251.363    98059998.385 8      2142.400          40.500  
                                                                
  23750398.602                   124809165.908 7     -2947.568          47.500  
                  23750401.383    97253890.568 8     -2296.808          41.000  
                                                                
  22125332.016                   116269408.006 8      2733.444          54.000  
                  22125330.234    90599553.597 9      2129.954          45.300  
                                                                
  20863999.422                   109641059.501 8     -1593.272          54.500  
                  20864000.480    85434588.506 9     -1241.508          49.500  
                                                                
  21471610.602                   114778064.069 7     -1847.045          47.000  
                  21471612.281    89271840.217 7     -1436.591          32.300  
                                                                
  20423083.563                   108981495.936 6       458.419          43.000  
                                                                                
                                                                
  23122672.828                   123777563.648 7      2177.255          48.500  
                  23122674.648    96271381.729 9      1693.416          42.800  
                                                                
  22217407.648                   118723108.488 7      -206.948          48.000  
                  22217411.047    92340213.836 8      -160.960          37.500  
                                                                
  22105094.797                   118081469.383 7      3279.087          46.000  
                  22105097.875    91841162.904 8      2550.401          38.800  
                                                                
  21611540.594                   115566599.225 7     -3976.946          46.000  
                  21611543.492    89885124.653 9     -3093.176          46.300  
                                                                
  20209257.148                   108143819.960 8      -484.014          52.000  
                  20209258.969    84111871.752 9      -376.453          48.800  
                                                                
  23019459.188                   122879434.308 7      3304.955          48.000  
                  23019462.168    95572905.526 9      2570.519          43.500  
                                                                
 18 07 01  0  0 45.0000000  0 19G01G08G10G11G14G18G20G22G27G31G32R05 0.000000000
                                R06R07R15R16R20R21R22       
  23802846.625                   125084808.110 6      3332.281          46.500  
                  23802849.023    97468693.540 9      2596.583          41.800  
                                                                
  23315954.688                   122526145.807 7     -1913.395          49.300  
                  23315956.906    95474918.784 9     -1490.963          42.800  
                                                                
  21829485.375                   114714713.529 8     -1532.644          53.000  
                  21829486.695    89388094.449 9     -1194.268          47.800  
                                                                
  23526062.008                   123630282.334 7      1919.236          50.000  
                  23526059.789    96335283.005 8      1495.513          40.800  
                                                                
  20078922.289                   105515459.052 7       157.646          50.300  
                  20078920.328    82219828.644 9       122.841          49.300  
                                                                
  22020044.438                   115716118.614 8      2310.702          52.500  
                  22020044.039    90168407.980 9      1800.545          45.000  
                                                                
  23463082.984                   123299313.206 7     -2246.638          49.000  
                  23463081.625    96077387.182 8     -1750.625          38.500  
                                                                
  23944639.023                   125829929.016 7      2748.941          47.300  
                  23944635.602    98049287.365 9      2142.032          41.500  
                                                                
  23753203.539                   124823905.867 7     -2948.324          48.500  
                  23753206.277    97265376.234 8     -2297.394          41.000  
                                                                
  22122732.391                   116255747.105 8      2731.307          54.300  
                  22122730.629    90588908.745 9      2128.292          45.300  
                                                                
  20865516.578                   109649032.149 8     -1595.395          54.800  
                  20865517.617    85440800.955 9     -1243.163          49.800  
                                                                
  21473338.578                   114787301.420 7     -1847.791          45.800  
                  21473340.359    89279024.815 7     -1437.171          32.300  
                                                                
  20422654.766                   108979207.852 6       457.061          43.500  
                                                                                
                                                                
  23120639.789                   123766680.607 7      2176.176          48.300  
                  23120641.570    96262917.148 9      1692.582          42.500  
                                                                
  22217603.891                   118724156.913 7      -211.552          48.000  
                  22217607.211    92341029.280 8      -164.540          38.000  
                                                                
  22102026.797                   118065080.643 7      3276.825          46.000  
                  22102029.836    91828416.106 8      2548.642          38.500  
                                                                
  21615260.375                   115586490.745 7     -3979.238          46.300  
                  21615263.316    89900595.817 9     -3094.963          46.300  
                                                                
  20209712.188                   108146254.990 8      -489.044          52.000  
                  20209714.008    84113765.662 9      -380.367          49.000  
                                                                
  23016365.367                   122862919.068 7      3301.726          48.300  
                  23016368.328    95560060.341 9      2568.011          43.300  
                                                                
 18 07 01  0  0 50.0000000  0 19G01G08G10G11G14G18G20G22G27G31G32R05 0.000000000
                                R06R07R15R16R20R21R22       
  23799676.641                   125068149.873 6      3331.135          46.800  
                  23799679.063    97455713.102 9      2595.688          42.500  
                                                                
  23317776.328                   122535718.740 7     -1915.476          49.500  
                  23317778.590    95482378.212 9     -1492.577          42.800  
                                                                
  21830944.273                   114722379.998 8     -1533.840          53.300  
                  21830945.574    89394068.325 9     -1195.204          47.500  
                                                                
  23524237.141                   123620692.591 7      1916.971          50.500  
                  23524234.879    96327810.482 8      1493.738          40.500  
                                                                
  20078773.805                   105514678.876 7       154.842          49.800  
                  20078771.863    82219220.711 9       120.658          49.500  
                                                                
  22017847.055                   115704571.136 7      2308.561          51.500  
                  22017846.613    90159409.939 9      1798.880          45.000  
                                                                
  23465221.125                   123310549.089 7     -2247.652          48.500  
                  23465219.766    96086142.420 8     -1751.417          39.500  
                                                                
  23942023.523                   125816184.708 7      2748.715          47.300  
                  23942020.125    98038577.518 8      2141.858          41.000  
                                                                
  23756009.039                   124838648.630 7     -2948.821          47.800  
                  23756011.758    97276864.116 9     -2297.785          42.000  
                                                                
  22120134.633                   116242095.897 8      2729.426          54.300  
                  22120132.895    90578271.446 9      2126.825          45.300  
                                                                
  20867035.578                   109657014.404 8     -1597.268          55.000  
                  20867036.598    85447020.898 9     -1244.626          49.500  
                                                                
  21475067.078                   114796541.438 7     -1848.261          45.800  
                  21475068.879    89286211.500 7     -1437.537          32.300  
                                                                
  20422227.063                   108976925.533 6       455.943          43.500  
                                                                                
                                                                
  23118607.625                   123755802.078 7      2175.288          48.800  
                  23118609.305    96254456.068 9      1691.892          42.500  
                                                                
  22217804.234                   118725227.469 7      -215.920          47.500  
                  22217807.496    92341861.937 8      -167.940          37.800  
                                                                
  22098960.695                   118048701.961 7      3274.886          46.000  
                  22098963.695    91815677.138 8      2547.129          39.000  
                                                                
  21618982.219                   115606392.997 7     -3981.366          47.000  
                  21618985.141    89916075.346 9     -3096.616          46.300  
                                                                
  20210171.727                   108148714.130 8      -493.812          52.800  
                  20210173.527    84115678.328 9      -384.078          49.000  
                                                                
  23013274.406                   122846418.977 7      3298.766          47.800  
                  23013277.285    95547226.925 9      2565.709          43.300  
                                                                
 18 07 01  0  0 55.0000000  0 19G01G08G10G11G14G18G20G22G27G31G32R05 0.000000000
                                R06R07R15R16R20R21R22       
  23796507.461                   125051495.583 6      3330.825          46.800  
                  23796509.840    97442735.735 9      2595.450          42.000  
                                                                
  23319599.648                   122545300.351 7     -1916.735          49.800  
                  23319601.887    95489844.395 9     -1493.555          43.500  
                                                                
  21832403.953                   114730050.652 8     -1534.176          52.800  
                  21832405.293    89400045.456 9     -1195.462          47.800  
                                                                
  23522414.141                   123611112.575 7      1915.534          50.000  
                  23522411.820    96320345.532 8      1492.626          41.000  
                                                                
  20078627.688                   105513911.047 7       152.869          50.000  
                  20078625.746    82218622.403 9       119.119          49.000  
                                                                
  22015651.375                   115693032.526 7      2307.263          52.000  
                  22015650.855    90150418.814 9      1797.865          45.000  
                                                                
  23467359.906                   123321788.362 7     -2247.841          48.300  
                  23467358.547    96094900.283 8     -1751.561          39.300  
                                                                
  23939407.898                   125802439.842 7      2749.301          47.500  
                  23939404.598    98027867.237 9      2142.314          41.500  
                                                                
  23758814.641                   124853392.129 7     -2948.485          47.500  
                  23758817.320    97288352.540 9     -2297.519          41.800  
                                                                
  22117538.313                   116228452.356 8      2728.383          54.000  
                  22117536.594    90567640.122 9      2126.013          45.500  
                                                                
  20868556.023                   109665004.220 8     -1598.280          55.000  
                  20868557.023    85453246.729 9     -1245.415          49.800  
                                                                
  21476795.656                   114805782.175 7     -1847.917          45.300  
                  21476797.516    89293398.747 7     -1437.271          32.500  
                                                                
  20421800.141                   108974647.281 6       455.636          43.300  
                                                                                
                                                                
  23116575.828                   123744925.758 7      2175.365          49.000  
                  23116577.430    96245996.725 9      1691.947          42.300  
                                                                
  22218008.328                   118726318.235 7      -219.482          47.500  
                  22218011.590    92342710.323 8      -170.710          37.800  
                                                                
  22095896.094                   118032331.429 7      3273.729          45.800  
                  22095899.094    91802944.504 8      2546.236          39.000  
                                                                
  21622705.617                   115626303.882 7     -3982.574          46.000  
                  21622708.598    89931561.586 9     -3097.556          46.000  
                                                                
  20210635.406                   108151195.340 8      -497.731          52.500  
                  20210637.188    84117608.152 9      -387.126          49.000  
                                                                
  23010185.828                   122829931.986 7      3296.641          47.000  
                  23010188.727    95534403.706 9      2564.052          43.800  
                                                                
 18 07 01  0  1  0.0000000  0 19G01G08G10G11G14G18G20G22G27G31G32R05 0.000000000
                                R06R07R15R16R20R21R22       
  23793339.141                   125034845.645 7      3329.538          47.300  
                  23793341.461    97429761.757 9      2594.445          41.300  
                                                                
  23321424.703                   122554891.159 7     -1919.016          49.800  
                  23321426.941    95497317.747 9     -1495.343          42.800  
                                                                
  21833864.492                   114737725.950 8     -1535.542          52.800  
                  21833865.852    89406026.195 9     -1196.525          47.500  
                                                                
  23520593.086                   123601542.763 7      1913.038          50.300  
                  23520590.766    96312888.547 8      1490.677          40.500  
                                                                
  20078483.984                   105513156.017 7       149.866          50.000  
                  20078482.043    82218034.068 9       116.783          49.300  
                                                                
  22013457.477                   115681503.406 8      2304.958          52.500  
                  22013456.918    90141435.089 9      1796.069          44.800  
                                                                
  23469499.422                   123333031.395 7     -2249.029          48.300  
                  23469498.000    96103661.083 8     -1752.488          40.300  
                                                                
  23936792.305                   125788694.866 7      2748.893          47.300  
                  23936789.086    98017156.858 9      2141.997          41.800  
                                                                
  23761620.500                   124868136.799 7     -2949.131          48.500  
                  23761623.141    97299841.887 9     -2298.026          41.500  
                                                                
  22114943.570                   116214816.997 8      2726.310          54.300  
                  22114941.852    90557015.181 9      2124.393          45.300  
                                                                
  20870077.984                   109673002.040 8     -1600.305          55.000  
                  20870078.965    85459478.796 9     -1246.991          49.500  
                                                                
  21478524.438                   114815023.920 7     -1848.531          46.000  
                  21478526.359    89300586.747 7     -1437.745          31.800  
                                                                
  20421374.008                   108972373.159 6       454.385          43.500  
                                                                                
                                                                
  23114544.547                   123734052.291 7      2174.372          48.800  
                  23114546.008    96237539.592 9      1691.178          42.300  
                                                                
  22218216.289                   118727429.577 7      -224.032          47.800  
                  22218219.590    92343574.700 8      -174.245          38.300  
                                                                
  22092833.094                   118015969.516 7      3271.579          46.300  
                  22092836.113    91790218.584 8      2544.560          39.000  
                                                                
  21626430.734                   115646223.824 7     -3984.804          46.300  
                  21626433.734    89947054.858 9     -3099.288          46.500  
                                                                
  20211103.328                   108153699.114 8      -502.673          52.500  
                  20211105.047    84119555.522 9      -390.966          49.000  
                                                                
  23007099.789                   122813458.615 7      3293.486          47.000  
