     2.11           OBSERVATION DATA    M (MIXED)           RINEX VERSION / TYPE
TPP                 Reference Data Shop 04-JUL-18 01:00     PGM / RUN BY / DATE 
NWCS                                                        MARKER NAME         
Newcastle                                                   MARKER NUMBER       
CORSnet-NSW         NSW                                     OBSERVER / AGENCY   
                    TRIMBLE NETR9                           REC # / TYPE / VERS 
CR6200323013        ASH701945E_M    SCIS                    ANT # / TYPE        
 -4721163.3790  2535155.7690 -3447435.5210                  APPROX POSITION XYZ 
        0.0000        0.0000        0.0000                  ANTENNA: DELTA H/E/N
     1     1     0                                          WAVELENGTH FACT L1/2
    14    C1    P1    L1    D1    S1    C2    P2    L2    D2# / TYPES OF OBSERV 
          S2    C5    L5    D5    S5                        # / TYPES OF OBSERV 
     5.000                                                  INTERVAL            
     0                                                      RCV CLOCK OFFS APPL 
    18                                                      LEAP SECONDS        
  2018    07    01    00    00   00.0000000     GPS         TIME OF FIRST OBS   
                                                            END OF HEADER       
 18 07 01  0  0  0.0000000  0 19G01G08G10G11G14G18G20G22G27G31G32R05 0.000000000
                                R06R07R15R16R20R21R22       
  23829609.164                   125225459.25914                        37.100  
                  23829620.680    97578310.94616                        24.100  
                                                                
  23297870.039                   122431098.38216                        43.300  
                  23297879.465    95400896.95617                        30.300  
                                                                
  21817810.633                   114653362.30617                        50.400  
                  21817819.887    89340330.68318                        40.600  
                                                                
  23540672.852                   123707089.12316                        43.900  
                  23540679.039    96395141.79017                        28.100  
                                                                
  20079871.883                   105520501.87317                        47.800  
                  20079878.418    82223763.09319                        43.900  
                                                                
  22038393.891                   115812503.95416                        45.000  
                  22038402.230    90243576.09318                        36.800  
                                                                
  23445953.984                   123209301.01315                        41.100  
                  23445961.066    96007282.45917                        26.100  
                                                                
  23966029.117                   125942290.56415                        39.500  
                  23966033.719    98136910.42016                        22.600  
                                                                
  23727186.547                   124687163.41914                        37.300  
                  23727197.715    97158865.85116                        22.600  
                                                                
  22147240.578                   116384532.14817                        50.000  
                  22147247.266    90689284.30718                        37.400  
                                                                
  20852096.703                   109578444.68617                        51.800  
                  20852105.770    85385889.50519                        45.700  
                                                                
  21458650.195    21458651.121   114708759.17014                        38.800  
  21458657.891    21458657.063    89217978.90017                        28.300  
                                                                
  20425324.281    20425323.551   108993462.76614                        39.000  
                                                                                
                                                                
  23136758.063    23136758.027   123852848.61613                        35.200  
  23136766.805    23136766.883    96330055.91518                        37.900  
                                                                
  22217373.195    22217372.754   118722907.93515                        39.100  
  22217379.555    22217379.852    92340092.31618                        33.700  
                                                                
  22131601.938    22131602.398   118223017.12613                        36.900  
  22131608.555    22131609.238    91951295.08718                        37.200  
                                                                
  21581765.133    21581765.090   115407396.18615                        39.500  
  21581774.883    21581774.184    89761323.56319                        42.600  
                                                                
  20204364.922    20204364.488   108117612.06117                        46.000  
  20204370.184    20204371.105    84091511.77719                        45.300  
                                                                
  23042719.883    23042719.223   123003625.03014                        38.600  
  23042724.320    23042726.250    95669496.65918                        39.100  
                                                                
 18 07 01  0  0  5.0000000  0 19G01G08G10G11G14G18G20G22G27G31G32R05 0.000000000
                                R06R07R15R16R20R21R22       
  23826433.125                   125208760.785 4      3339.282          37.500  
                  23826442.375    97565299.169 6      2602.039          24.700  
                                                                
  23299675.352                   122440588.049 6     -1898.739          43.200  
                  23299685.258    95408291.495 7     -1479.543          29.600  
                                                                
  21819261.977                   114660990.513 7     -1526.064          49.600  
                  21819271.254    89346274.734 8     -1189.136          40.700  
                                                                
  23538829.719                   123697405.940 6      1935.770          43.400  
                  23538836.484    96387596.438 7      1508.389          28.700  
                                                                
  20079701.305                   105519605.739 7       178.148          48.100  
                  20079707.453    82223064.811 9       138.817          43.700  
                                                                
  22036180.859                   115800871.941 6      2325.612          46.400  
                  22036188.816    90234512.188 8      1812.163          36.400  
                                                                
  23448085.438                   123220502.899 5     -2240.740          41.300  
                  23448092.230    96016011.177 6     -1746.016          25.800  
                                                                
  23963413.914                   125928547.061 5      2748.656          40.200  
                  23963418.578    98126201.217 6      2141.809          23.300  
                                                                
  23729990.695                   124701896.388 4     -2946.745          37.100  
                  23730001.328    97170346.073 6     -2296.167          23.000  
                                                                
  22144628.328                   116370805.119 7      2744.715          50.500  
                  22144635.496    90678587.921 8      2138.742          38.300  
                                                                
  20853601.836                   109586355.699 7     -1582.908          51.000  
                  20853611.352    85392053.930 9     -1233.438          45.300  
                                                                
  21460379.406    21460378.457   114717994.913 4     -1847.276          38.800  
  21460386.098    21460385.293    89225162.244 7     -1436.788          28.000  
                                                                
  20424889.734    20424889.238   108991145.711 4       463.039          38.300  
                                                                                
                                                                
  23134719.273    23134720.320   123841941.675 3      2181.074          35.500  
  23134730.023    23134728.145    96321572.741 8      1696.397          37.300  
                                                                
  22217536.844    22217535.793   118723783.766 4      -176.850          38.800  
  22217545.516    22217544.453    92340773.520 8      -137.549          33.100  
                                                                
  22128522.148    22128521.180   118206559.058 4      3290.894          37.100  
  22128526.281    22128528.477    91938494.374 8      2559.585          36.700  
                                                                
  21585471.078    21585471.223   115427215.129 5     -3964.604          39.700  
  21585480.250    21585480.676    89776738.291 9     -3083.578          42.300  
                                                                
  20204785.703    20204785.762   108119866.347 7      -452.715          45.800  
  20204791.852    20204792.012    84093265.108 9      -352.116          45.100  
                                                                
  23039605.211    23039604.316   122986998.493 5      3324.200          39.300  
  23039610.922    23039611.570    95656564.922 8      2585.485          39.300  
                                                                
 18 07 01  0  0 10.0000000  0 19G01G08G10G11G14G18G20G22G27G31G32R05 0.000000000
                                R06R07R15R16R20R21R22       
  23823255.820                   125192066.817 4      3338.459          38.100  
                  23823265.645    97552290.867 6      2601.388          25.300  
                                                                
  23301483.289                   122450087.215 6     -1900.573          43.600  
                  23301493.219    95415693.439 7     -1480.963          30.200  
                                                                
  21820714.883                   114668623.552 7     -1526.983          49.800  
                  21820724.148    89352222.560 8     -1189.857          40.800  
                                                                
  23536989.063                   123687733.006 6      1933.784          43.600  
                  23536995.348    96380059.093 7      1506.842          27.700  
                                                                
  20079533.094                   105518722.623 7       175.603          49.100  
                  20079539.586    82222376.666 9       136.832          43.500  
                                                                
  22033968.859                   115789249.498 6      2323.733          44.600  
                  22033976.773    90225455.727 8      1810.697          36.000  
                                                                
  23450217.391                   123231708.778 5     -2241.460          40.800  
                  23450225.074    96024743.025 6     -1746.582          25.000  
                                                                
  23960798.320                   125914803.627 5      2748.685          40.300  
                  23960803.461    98115492.029 6      2141.859          22.600  
                                                                
  23732794.992                   124716630.843 3     -2946.979          36.900  
                  23732804.902    97181827.450 6     -2296.340          22.900  
                                                                
  22142017.422                   116357086.282 7      2743.115          49.900  
                  22142024.469    90667897.926 8      2137.494          38.200  
                                                                
  20855109.148                   109594275.008 7     -1584.509          51.000  
                  20855118.617    85398224.815 9     -1234.679          45.500  
                                                                
  21462108.031    21462107.059   114727231.880 5     -1847.469          39.500  
  21462112.348    21462113.000    89232346.549 7     -1436.928          27.300  
                                                                
  20424457.055    20424455.457   108988833.252 4       462.090          38.600  
                                                                                
                                                                
  23132683.758    23132684.238   123831037.834 3      2180.542          35.900  
  23132691.543    23132692.059    96313091.986 8      1695.970          37.500  
                                                                
  22217702.930    22217704.227   118724680.386 4      -180.945          38.400  
  22217711.625    22217712.074    92341470.887 8      -140.734          34.000  
                                                                
  22125442.711    22125442.328   118190109.740 3      3289.223          36.900  
  22125446.516    22125449.172    91925700.457 8      2558.285          37.400  
                                                                
  21589179.039    21589178.762   115447043.539 5     -3966.412          39.900  
  21589188.371    21589188.227    89792160.384 9     -3084.985          42.700  
                                                                
  20205212.273    20205211.863   108122143.426 7      -457.217          45.400  
  20205217.230    20205217.484    84095036.165 9      -355.612          45.900  
                                                                
  23036493.703    23036492.832   122970385.633 5      3321.464          39.600  
  23036498.914    23036499.859    95643643.804 8      2583.353          39.700  
                                                                
 18 07 01  0  0 15.0000000  0 19G01G08G10G11G14G18G20G22G27G31G32R05 0.000000000
                                R06R07R15R16R20R21R22       
  23820079.680                   125175377.399 4      3337.496          37.400  
                  23820090.191    97539286.132 6      2600.628          24.200  
                                                                
  23303292.508                   122459595.935 6     -1902.527          43.200  
                  23303302.344    95423102.831 7     -1482.500          30.300  
                                                                
  21822168.273                   114676261.478 7     -1527.983          50.700  
                  21822177.395    89358174.187 8     -1190.641          40.800  
                                                                
  23535150.789                   123678070.483 6      1931.667          43.400  
                  23535156.414    96372529.856 7      1505.203          28.900  
                                                                
  20079367.484                   105517852.643 7       172.934          48.100  
                  20079374.242    82221698.760 9       134.751          43.200  
                                                                
  22031758.813                   115777636.600 6      2321.795          45.500  
                  22031766.512    90216406.728 8      1809.187          36.600  
                                                                
  23452350.961                   123242918.723 5     -2242.339          41.600  
                  23452358.402    96033478.056 6     -1747.280          25.600  
                                                                
  23958183.320                   125901060.297 5      2748.654          40.200  
                  23958187.809    98104782.964 6      2141.801          22.300  
                                                                
  23735598.227                   124731366.885 4     -2947.313          37.100  
                  23735609.945    97193310.069 6     -2296.585          22.900  
                                                                
  22139408.602                   116343375.739 7      2741.436          50.500  
                  22139415.422    90657214.394 8      2136.181          38.600  
                                                                
  20856618.055                   109602202.699 7     -1586.217          50.900  
                  20856626.980    85404402.235 9     -1236.009          45.800  
                                                                
  21463837.070    21463835.672   114736470.178 4     -1847.751          38.600  
  21463843.566    21463841.023    89239531.891 7     -1437.151          26.900  
                                                                
  20424024.719    20424023.332   108986525.524 4       461.186          38.300  
                                                                                
                                                                
  23130647.438    23130647.777   123820137.117 3      2179.906          35.200  
  23130654.926    23130655.438    96304613.639 8      1695.483          37.800  
                                                                
  22217876.352    22217876.332   118725597.766 5      -185.159          39.200  
  22217881.777    22217883.750    92342184.405 8      -144.009          34.700  
                                                                
  22122364.664    22122364.492   118173668.982 4      3287.422          37.400  
  22122368.684    22122371.492    91912913.206 8      2556.878          37.000  
                                                                
  21592890.094    21592889.418   115466881.426 5     -3968.330          39.700  
  21592898.484    21592898.371    89807589.849 9     -3086.469          43.000  
                                                                
  20205641.688    20205641.582   108124443.314 7      -461.816          45.400  
  20205647.168    20205647.434    84096824.967 9      -359.192          45.400  
                                                                
  23033384.711    23033383.840   122953786.485 5      3318.733          39.900  
  23033389.508    23033390.633    95630733.357 8      2581.229          39.300  
                                                                
 18 07 01  0  0 20.0000000  0 19G01G08G10G11G14G18G20G22G27G31G32R05 0.000000000
                                R06R07R15R16R20R21R22       
  23816905.555                   125158692.534 4      3336.588          37.300  
                  23816915.027    97526284.947 6      2599.930          24.700  
                                                                
  23305103.617                   122469114.180 6     -1904.431          44.200  
                  23305113.570    95430519.637 7     -1483.976          31.200  
                                                                
  21823622.633                   114683904.271 7     -1528.957          50.000  
                  21823631.969    89364129.604 8     -1191.393          40.700  
                                                                
  23533313.547                   123668418.263 6      1929.585          44.100  
                  23533320.422    96365008.645 7      1503.569          28.600  
                                                                
  20079204.609                   105516995.695 7       170.325          49.000  
                  20079211.129    82221031.006 9       132.724          43.700  
                                                                
  22029551.492                   115766033.370 6      2319.852          45.500  
                  22029558.930    90207365.245 8      1807.677          36.400  
                                                                
  23454485.281                   123254132.685 5     -2243.139          41.300  
                  23454492.211    96042216.195 7     -1747.884          26.300  
                                                                
  23955567.625                   125887317.104 5      2748.625          40.000  
                  23955572.168    98094073.975 6      2141.786          24.000  
                                                                
  23738403.016                   124746104.483 4     -2947.656          37.300  
                  23738413.473    97204793.932 6     -2296.879          22.800  
                                                                
  22136801.109                   116329673.470 7      2739.762          50.100  
                  22136808.230    90646537.308 8      2134.879          37.900  
                                                                
  20858128.023                   109610138.688 7     -1587.885          50.500  
                  20858136.996    85410586.125 9     -1237.313          45.600  
                                                                
  21465564.664    21465564.277   114745709.755 4     -1848.028          38.200  
  21465570.320    21465569.727    89246718.220 7     -1437.363          27.300  
                                                                
  20423591.969    20423592.039   108984222.170 4       460.277          37.900  
                                                                                
                                                                
  23128611.969    23128612.590   123809239.420 2      2179.261          34.600  
  23128619.238    23128619.926    96296137.666 8      1694.981          38.200  
                                                                
  22218052.039    22218051.293   118726535.902 5      -189.313          39.400  
  22218058.348    22218059.188    92342914.069 7      -147.253          32.900  
                                                                
  22119287.156    22119287.852   118157236.771 4      3285.766          37.200  
  22119292.410    22119294.754    91900132.598 8      2555.599          37.300  
                                                                
  21596600.484    21596600.652   115486728.763 5     -3970.250          39.200  
  21596609.133    21596609.465    89823026.665 9     -3087.973          42.200  
                                                                
  20206076.039    20206075.887   108126765.998 7      -466.391          45.300  
  20206080.594    20206081.539    84098631.488 9      -362.746          45.800  
                                                                
  23030278.414    23030277.047   122937200.964 6      3315.965          41.100  
  23030281.734    23030283.980    95617833.507 8      2579.086          39.900  
                                                                
 18 07 01  0  0 25.0000000  0 19G01G08G10G11G14G18G20G22G27G31G32R05 0.000000000
                                R06R07R15R16R20R21R22       
  23813731.109                   125142012.239 4      3335.670          37.300  
                  23813741.215    97513287.309 6      2599.222          25.700  
                                                                
  23306916.781                   122478641.942 6     -1906.324          43.900  
                  23306926.793    95437943.861 7     -1485.448          31.400  
                                                                
  21825077.695                   114691551.965 7     -1529.954          50.000  
                  21825086.648    89370088.844 8     -1192.165          40.600  
                                                                
  23531479.281                   123658776.420 6      1927.520          43.900  
                  23531485.535    96357495.513 7      1501.966          28.400  
                                                                
  20079044.219                   105516151.866 7       167.712          48.700  
                  20079050.680    82220373.477 9       130.686          43.700  
                                                                
  22027344.961                   115754439.746 6      2317.935          45.300  
                  22027352.313    90198331.247 8      1806.177          36.400  
                                                                
  23456619.820                   123265350.705 5     -2243.941          41.500  
                  23456626.285    96050957.522 6     -1748.524          24.500  
                                                                
  23952952.930                   125873574.094 5      2748.579          40.200  
                  23952957.309    98083365.137 6      2141.760          25.600  
                                                                
  23741207.023                   124760843.650 4     -2948.006          37.500  
                  23741218.184    97216278.963 6     -2297.158          23.000  
                                                                
  22134195.375                   116315979.520 7      2738.109          50.500  
                  22134202.492    90635866.701 8      2133.592          37.900  
                                                                
  20859639.992                   109618083.030 7     -1589.566          51.000  
                  20859648.785    85416776.522 9     -1238.627          45.600  
                                                                
  21467293.438    21467292.488   114754950.848 4     -1848.376          38.400  
  21467299.473    21467298.340    89253905.727 7     -1437.627          27.200  
                                                                
  20423161.445    20423160.574   108981923.449 4       459.355          38.700  
                                                                                
                                                                
  23126577.313    23126576.879   123798344.913 3      2178.619          35.700  
  23126584.555    23126584.621    96287664.150 8      1694.479          38.000  
                                                                
  22218231.039    22218231.207   118727494.856 5      -193.507          39.900  
  22218238.836    22218238.922    92343659.918 7      -150.501          32.900  
                                                                
  22116213.773    22116213.180   118140813.345 4      3284.000          37.200  
  22116217.824    22116220.188    91887358.824 8      2554.228          36.600  
                                                                
  21600313.781    21600314.113   115506585.688 5     -3972.144          39.100  
  21600323.801    21600322.867    89838470.939 9     -3089.441          42.700  
                                                                
  20206514.422    20206514.152   108129111.505 7      -470.935          45.200  
  20206519.262    20206520.211    84100455.765 9      -366.283          45.500  
                                                                
  23027174.063    23027171.992   122920629.197 5      3313.204          40.400  
  23027177.641    23027179.660    95604944.367 8      2576.929          39.800  
                                                                
 18 07 01  0  0 30.0000000  0 19G01G08G10G11G14G18G20G22G27G31G32R05 0.000000000
                                R06R07R15R16R20R21R22       
  23810557.531                   125125336.484 4      3334.775          37.100  
                  23810568.070    97500293.224 7      2598.515          26.200  
                                                                
  23308732.141                   122488179.105 6     -1908.178          44.300  
                  23308741.871    95445375.410 7     -1486.891          30.800  
                                                                
  21826534.570                   114699204.507 7     -1530.882          50.200  
                  21826543.445    89376051.856 8     -1192.891          40.500  
                                                                
  23529646.250                   123649144.955 6      1925.474          43.800  
                  23529653.563    96349990.478 7      1500.377          30.000  
                                                                
  20078885.766                   105515321.110 7       165.119          49.000  
                  20078892.758    82219726.139 9       128.664          43.600  
                                                                
  22025140.641                   115742855.625 6      2316.074          45.500  
                  22025148.199    90189304.664 8      1804.734          35.700  
                                                                
  23458754.844                   123276572.769 5     -2244.733          41.400  
                  23458762.355    96059701.968 6     -1749.150          25.400  
                                                                
  23950337.570                   125859831.164 5      2748.600          40.400  
                  23950342.414    98072656.373 6      2141.753          24.400  
                                                                
  23744012.938                   124775584.248 3     -2948.224          36.700  
                  23744023.520    97227765.131 6     -2297.318          22.500  
                                                                
  22131590.586                   116302293.836 7      2736.488          50.300  
                  22131598.023    90625202.538 8      2132.329          38.600  
                                                                
  20861153.273                   109626035.632 8     -1591.163          52.100  
                  20861161.992    85422973.358 9     -1239.868          45.300  
                                                                
  21469022.078    21469021.270   114764193.120 4     -1848.542          37.900  
  21469026.375    21469027.516    89261094.171 7     -1437.749          27.200  
                                                                
  20422731.570    20422730.957   108979629.277 4       458.445          38.400  
                                                                                
                                                                
  23124542.883    23124542.168   123787453.514 3      2178.048          36.600  
  23124551.527    23124550.180    96279193.060 8      1694.051          37.200  
                                                                
  22218414.273    22218413.879   118728474.673 5      -197.621          40.400  
  22218421.926    22218422.492    92344422.000 8      -153.707          33.100  
                                                                
  22113140.477    22113140.586   118124398.507 4      3282.226          37.300  
  22113145.629    22113147.445    91874591.733 8      2552.847          37.100  
                                                                
  21604028.930    21604028.887   115526451.971 5     -3973.995          39.200  
  21604038.406    21604037.879    89853922.497 9     -3090.890          42.400  
                                                                
  20206956.773    20206956.574   108131479.822 7      -475.481          45.300  
  20206961.910    20206962.324    84102297.790 9      -369.818          46.200  
                                                                
  23024071.680    23024069.820   122904071.163 5      3310.537          40.200  
  23024076.250    23024077.445    95592065.902 8      2574.858          40.500  
                                                                
 18 07 01  0  0 35.0000000  0 19G01G08G10G11G14G18G20G22G27G31G32R05 0.000000000
                                R06R07R15R16R20R21R22       
  23807383.805                   125108665.356 3      3333.831          36.600  
                  23807395.535    97487302.741 6      2597.771          24.600  
                                                                
  23310548.266                   122497725.859 6     -1910.135          43.700  
                  23310558.359    95452814.430 7     -1488.410          30.800  
                                                                
  21827991.352                   114706861.971 7     -1531.900          50.200  
                  21828000.309    89382018.715 8     -1193.689          40.400  
                                                                
  23527815.766                   123639523.866 6      1923.363          43.600  
                  23527822.398    96342493.527 7      1498.727          28.300  
                                                                
  20078730.445                   105514503.434 7       162.476          48.300  
                  20078736.781    82219088.990 9       126.600          43.800  
                                                                
  22022937.492                   115731281.256 6      2314.086          45.600  
                  22022945.582    90180285.676 8      1803.185          36.100  
                                                                
  23460891.469                   123287798.947 5     -2245.605          41.200  
                  23460898.465    96068449.626 6     -1749.814          25.600  
                                                                
  23947722.141                   125846088.487 5      2748.504          41.300  
                  23947727.992    98061947.802 6      2141.695          24.500  
                                                                
  23746818.266                   124790326.407 3     -2948.546          36.900  
                  23746828.438    97239252.516 6     -2297.563          22.600  
                                                                
  22128988.258                   116288616.524 7      2734.778          50.500  
                  22128995.484    90614544.897 8      2130.997          39.200  
                                                                
  20862668.406                   109633996.619 7     -1592.881          51.600  
                  20862676.949    85429176.721 9     -1241.207          46.000  
                                                                
  21470750.984    21470750.691   114773436.907 4     -1848.860          37.900  
  21470757.320    21470756.539    89268283.786 7     -1438.002          27.400  
                                                                
  20422302.633    20422301.668   108977339.815 4       457.492          38.100  
                                                                                
                                                                
  23122508.844    23122508.363   123776565.013 3      2177.414          35.900  
  23122516.797    23122516.227    96270724.233 8      1693.546          37.900  
                                                                
  22218601.695    22218601.676   118729475.464 5      -201.872          39.400  
  22218607.625    22218609.254    92345200.403 8      -157.014          33.500  
                                                                
  22110070.773    22110069.875   118107992.511 4      3280.526          37.900  
  22110074.391    22110076.254    91861831.515 8      2551.527          37.200  
                                                                
  21607746.461    21607745.691   115546327.705 4     -3975.927          38.800  
  21607755.395    21607754.934    89869381.394 9     -3092.384          42.400  
                                                                
  20207403.398    20207402.707   108133870.924 7      -480.071          46.000  
  20207407.559    20207409.176    84104157.538 9      -373.388          45.600  
                                                                
  23020970.953    23020970.691   122887526.877 5      3307.724          40.200  
  23020976.137    23020978.145    95579198.123 8      2572.680          38.500  
                                                                
 18 07 01  0  0 40.0000000  0 19G01G08G10G11G14G18G20G22G27G31G32R05 0.000000000
                                R06R07R15R16R20R21R22       
  23804213.664                   125091998.773 4      3332.928          37.400  
                  23804223.645    97474315.795 6      2597.087          23.900  
                                                                
  23312366.750                   122507281.998 6     -1912.006          43.000  
                  23312376.738    95460260.774 7     -1489.867          30.900  
                                                                
  21829449.281                   114714524.315 7     -1532.889          49.600  
                  21829458.457    89387989.367 8     -1194.461          40.900  
                                                                
  23525986.828                   123629913.135 6      1921.288          43.400  
                  23525993.055    96335004.646 7      1497.111          29.600  
                                                                
  20078577.258                   105513698.814 7       159.860          48.800  
                  20078584.063    82218462.013 9       124.567          44.100  
                                                                
  22020737.008                   115719716.478 6      2312.157          45.400  
                  22020744.859    90171274.164 8      1801.680          36.200  
                                                                
  23463028.016                   123299029.118 5     -2246.380          40.900  
                  23463035.441    96077200.410 6     -1750.447          25.800  
                                                                
  23945107.555                   125832345.883 5      2748.483          40.800  
                  23945112.539    98051239.279 6      2141.684          24.200  
                                                                
  23749623.438                   124805070.059 3     -2948.866          36.600  
                  23749634.094    97250741.081 6     -2297.826          22.800  
                                                                
  22126386.922                   116274947.525 7      2733.105          50.600  
                  22126394.223    90603893.738 8      2129.691          39.200  
                                                                
  20864184.445                   109641965.850 7     -1594.536          51.300  
                  20864193.527    85435386.511 9     -1242.496          45.500  
                                                                
  21472480.547    21472480.348   114782681.941 4     -1849.177          38.300  
  21472485.406    21472486.316    89275474.376 7     -1438.257          28.000  
                                                                
  20421874.305    20421873.832   108975054.775 4       456.608          38.400  
                                                                                
                                                                
  23120474.695    23120475.578   123765679.650 3      2176.826          36.300  
  23120482.777    23120481.543    96262257.842 8      1693.086          37.500  
                                                                
  22218792.719    22218792.793   118730497.323 4      -206.065          38.900  
  22218800.805    22218800.855    92345995.177 8      -160.279          33.900  
                                                                
  22107000.211    22106999.688   118091595.079 4      3278.809          37.700  
  22107004.684    22107006.348    91849077.964 8      2550.195          36.800  
                                                                
  21611464.406    21611464.340   115566212.817 4     -3977.821          38.600  
  21611473.660    21611473.605    89884847.594 9     -3093.864          42.100  
                                                                
  20207854.289    20207854.090   108136284.853 7      -484.650          46.000  
  20207859.484    20207860.301    84106035.035 9      -376.950          46.000  
                                                                
  23017875.523    23017874.980   122870996.350 5      3304.989          39.800  
  23017879.902    23017880.922    95566341.046 8      2570.545          39.200  
                                                                
 18 07 01  0  0 45.0000000  0 19G01G08G10G11G14G18G20G22G27G31G32R05 0.000000000
                                R06R07R15R16R20R21R22       
  23801042.648                   125075336.916 3      3331.956          37.000  
                  23801053.027    97461332.531 6      2596.321          24.000  
                                                                
  23314187.281                   122516847.620 6     -1913.944          42.600  
                  23314197.121    95467714.511 7     -1491.385          31.100  
                                                                
  21830908.578                   114722191.613 7     -1533.894          50.300  
                  21830917.395    89393963.882 8     -1195.244          40.300  
                                                                
  23524159.828                   123620312.905 6      1919.168          44.300  
                  23524166.172    96327523.959 7      1495.452          28.900  
                                                                
  20078426.711                   105512907.351 7       157.219          48.900  
                  20078432.832    82217845.283 9       122.514          43.400  
                                                                
  22018538.461                   115708161.455 6      2310.179          46.500  
                  22018545.836    90162270.250 8      1800.140          35.900  
                                                                
  23465166.344                   123310263.431 5     -2247.212          41.100  
                  23465173.027    96085954.418 6     -1751.077          25.400  
                                                                
  23942491.578                   125818603.509 5      2748.437          40.100  
                  23942498.180    98040530.933 6      2141.631          22.900  
                                                                
  23752429.063                   124819815.274 3     -2949.191          37.000  
                  23752440.488    97262230.862 6     -2298.084          22.800  
                                                                
  22123787.836                   116261287.023 7      2731.405          50.800  
                  22123794.707    90593249.196 8      2128.367          38.400  
                                                                
  20865702.539                   109649943.475 7     -1596.217          50.700  
                  20865711.836    85441602.844 9     -1243.804          45.700  
                                                                
  21474210.352    21474209.871   114791928.398 5     -1849.406          39.300  
  21474216.016    21474215.305    89282666.064 7     -1438.433          27.500  
                                                                
  20421446.836    20421446.293   108972774.544 4       455.665          38.300  
                                                                                
                                                                
  23118441.906    23118442.672   123754797.505 3      2176.209          35.700  
  23118449.727    23118448.859    96253793.951 8      1692.602          37.800  
                                                                
  22218988.039    22218988.512   118731540.058 5      -210.241          39.100  
  22218996.074    22218996.102    92346806.187 8      -163.515          34.500  
                                                                
  22103933.336    22103931.547   118075206.556 4      3276.972          37.700  
  22103936.340    22103938.293    91836331.351 8      2548.744          37.500  
                                                                
  21615184.875    21615184.879   115586107.400 4     -3979.672          38.300  
  21615194.508    21615193.852    89900321.147 9     -3095.292          42.100  
                                                                
  20208309.805    20208309.277   108138721.629 7      -489.212          45.200  
  20208315.453    20208316.043    84107930.302 9      -380.494          45.600  
                                                                
  23014781.328    23014780.668   122854479.728 5      3302.180          40.000  
  23014785.984    23014786.664    95553494.778 8      2568.364          39.500  
                                                                
 18 07 01  0  0 50.0000000  0 19G01G08G10G11G14G18G20G22G27G31G32R05 0.000000000
                                R06R07R15R16R20R21R22       
  23797873.055                   125058679.669 3      3331.064          36.700  
                  23797883.289    97448352.845 6      2595.642          25.500  
                                                                
  23316009.234                   122526422.679 6     -1915.767          42.600  
                  23316019.063    95475175.592 7     -1492.809          31.100  
                                                                
  21832368.477                   114729863.799 7     -1534.839          50.500  
                  21832377.414    89399942.203 8     -1195.980          40.100  
                                                                
  23522334.609                   123610723.041 6      1917.117          44.500  
                  23522341.371    96320051.328 7      1493.856          28.900  
                                                                
  20078278.844                   105512128.954 7       154.617          48.800  
                  20078284.984    82217238.745 9       120.478          43.800  
                                                                
  22016341.531                   115696616.117 6      2308.281          46.100  
                  22016349.066    90153273.884 8      1798.657          36.300  
                                                                
  23467304.992                   123321501.807 5     -2248.007          41.100  
                  23467311.820    96094711.591 6     -1751.686          25.700  
                                                                
  23939876.367                   125804861.252 5      2748.432          39.400  
                  23939883.031    98029822.693 6      2141.626          24.000  
                                                                
  23755235.992                   124834561.945 4     -2949.472          37.900  
                  23755246.246    97273721.741 6     -2298.285          22.800  
                                                                
  22121189.766                   116247634.854 7      2729.752          50.900  
                  22121196.832    90582611.146 8      2127.080          38.400  
                                                                
  20867222.359                   109657929.370 7     -1597.871          51.100  
                  20867231.281    85447825.614 9     -1245.095          45.100  
                                                                
  21475939.969    21475939.395   114801176.230 4     -1849.694          38.600  
  21475945.852    21475946.219    89289858.807 7     -1438.647          27.400  
                                                                
  20421020.695    20421020.059   108970498.725 4       454.800          38.700  
                                                                                
                                                                
  23116410.602    23116410.871   123743918.474 3      2175.509          35.900  
  23116417.742    23116417.215    96245332.490 8      1692.066          37.300  
                                                                
  22219187.289    22219186.660   118732603.496 5      -214.378          39.200  
  22219194.406    22219195.086    92347633.314 8      -166.744          34.200  
                                                                
  22100865.969    22100865.188   118058826.713 4      3275.273          38.600  
  22100871.063    22100871.953    91823591.476 8      2547.423          37.000  
                                                                
  21618907.781    21618907.129   115606011.368 4     -3981.579          38.200  
  21618915.391    21618916.469    89915802.005 9     -3096.769          41.800  
                                                                
  20208769.664    20208768.902   108141181.169 7      -493.729          45.300  
  20208775.129    20208774.813    84109843.281 9      -384.011          45.900  
                                                                
  23011690.484    23011688.906   122837976.878 5      3299.428          40.100  
  23011693.840    23011696.445    95540659.231 8      2566.213          39.900  
                                                                
 18 07 01  0  0 55.0000000  0 19G01G08G10G11G14G18G20G22G27G31G32R05 0.000000000
                                R06R07R15R16R20R21R22       
  23794704.031                   125042027.101 4      3330.162          37.500  
                  23794713.656    97435376.810 6      2594.948          24.100  
                                                                
  23317833.211                   122536007.169 6     -1917.635          43.200  
                  23317842.914    95482644.027 7     -1494.268          30.700  
                                                                
  21833829.508                   114737540.915 7     -1535.801          50.500  
                  21833838.633    89405924.369 8     -1196.726          40.700  
                                                                
  23520511.391                   123601143.642 6      1915.048          44.300  
                  23520518.605    96312586.865 7      1492.245          29.200  
                                                                
  20078132.688                   105511363.627 7       152.030          49.300  
                  20078139.578    82216642.387 9       118.464          43.600  
                                                                
  22014146.406                   115685080.393 6      2306.371          46.100  
                  22014153.590    90144285.009 8      1797.167          36.100  
                                                                
  23469444.898                   123332744.292 6     -2248.802          42.400  
                  23469451.109    96103471.953 6     -1752.307          25.300  
                                                                
  23937261.633                   125791119.187 5      2748.404          40.000  
                  23937267.781    98019114.595 6      2141.620          25.100  
                                                                
  23758041.852                   124849310.068 4     -2949.719          37.300  
                  23758052.629    97285213.790 6     -2298.483          22.600  
                                                                
  22118593.211                   116233991.081 7      2728.098          50.800  
                  22118600.590    90571979.646 8      2125.790          38.500  
                                                                
  20868743.625                   109665923.565 7     -1599.482          51.300  
                  20868752.773    85454054.860 9     -1246.349          45.600  
                                                                
  21477670.688    21477669.762   114810425.458 5     -1849.943          39.300  
  21477674.840    21477676.191    89297052.645 7     -1438.836          27.400  
                                                                
  20420594.875    20420594.051   108968227.711 4       453.864          38.500  
                                                                                
                                                                
  23114378.102    23114378.723   123733042.451 3      2174.969          36.500  
  23114386.078    23114384.816    96236873.349 8      1691.639          37.400  
                                                                
  22219389.758    22219389.691   118733687.942 5      -218.542          39.200  
  22219397.309    22219397.723    92348476.762 8      -169.967          34.400  
                                                                
  22097801.016    22097800.422   118042455.729 4      3273.522          37.900  
  22097805.082    22097807.391    91810858.497 8      2546.073          37.000  
                                                                
  21622631.789    21622631.137   115625924.686 4     -3983.371          38.200  
  21622639.230    21622639.887    89931290.142 9     -3098.177          41.800  
                                                                
  20209233.164    20209233.012   108143663.533 7      -498.271          45.300  
  20209239.152    20209239.426    84111774.009 9      -387.548          45.900  
                                                                
  23008600.508    23008599.473   122821487.817 6      3296.720          41.400  
  23008605.746    23008606.664    95527834.414 8      2564.117          39.800  
                                                                
 18 07 01  0  1  0.0000000  0 19G01G08G10G11G14G18G20G22G27G31G32R05 0.000000000
                                R06R07R15R16R20R21R22       
  23791536.359                   125025379.052 3      3329.171          36.900  
                  23791545.816    97422404.316 6      2594.162          25.700  
                                                                
  23319659.195                   122545600.989 6     -1919.567          42.400  
                  23319668.582    95490119.728 7     -1495.771          30.800  
                                                                
  21835291.156                   114745222.806 7     -1536.810          50.100  
                  21835299.793    89411910.257 8     -1197.509          39.800  
                                                                
  23518691.078                   123591574.568 6      1912.937          44.100  
                  23518697.461    96305130.440 7      1490.596          29.200  
                                                                
  20077989.625                   105510611.273 7       149.382          48.800  
                  20077995.953    82216056.136 9       116.402          43.400  
                                                                
  22011952.836                   115673554.306 6      2304.425          47.000  
                  22011960.301    90135303.644 8      1795.654          35.900  
                                                                
  23471584.203                   123343990.688 5     -2249.632          41.800  
                  23471591.133    96112235.379 7     -1752.955          26.500  
                                                                
  23934647.188                   125777377.154 5      2748.372          40.000  
                  23934652.137    98008406.509 6      2141.591          21.700  
                                                                
  23760849.234                   124864059.536 3     -2950.038          36.800  
                  23760859.691    97296706.891 6     -2298.733          22.800  
                                                                
  22115998.445                   116220355.637 7      2726.381          50.600  
                  22116005.625    90561354.629 8      2124.450          38.700  
                                                                
  20870266.266                   109673925.922 7     -1601.169          51.900  
                  20870275.043    85460290.461 9     -1247.667          45.700  
                                                                
  21479401.023    21479400.027   114819675.863 4     -1850.232          38.800  
  21479405.023    21479406.590    89304247.416 7     -1439.063          28.400  
                                                                
  20420170.234    20420169.480   108965960.951 4       452.962          38.100  
                                                                                
                                                                
  23112348.305    23112348.199   123722169.392 2      2174.333          35.000  
  23112353.887    23112354.348    96228416.527 8      1691.155          36.900  
                                                                
  22219596.086    22219596.277   118734793.063 5      -222.716          39.500  
  22219604.332    22219604.586    92349336.314 8      -173.231          34.300  
                                                                
  22094738.016    22094737.023   118026093.516 4      3271.731          38.200  
  22094742.922    22094743.461    91798132.337 8      2544.682          37.700  
                                                                
  21626357.852    21626356.355   115645847.257 4     -3985.265          37.400  
  21626365.316    21626365.426    89946785.472 9     -3099.653          41.600  
                                                                
  20209701.500    20209700.902   108146168.589 7      -502.863          45.200  
  20209706.711    20209707.781    84113722.376 9      -391.114          46.100  
                                                                
  23005514.297    23005513.707   122805012.606 5      3293.916          40.400  
