     2.11           OBSERVATION DATA    M (MIXED)           RINEX VERSION / TYPE
teqc  2019Feb25                         20240504 22:35:50UTCPGM / RUN BY / DATE
MTLD                                                        MARKER NAME
Maitland                                                    MARKER NUMBER
CORSnet-NSW         NSW                                     OBSERVER / AGENCY
                    TRIMBLE NETR9                           REC # / TYPE / VERS
1912118025          TRM57971.00     NONE                    ANT # / TYPE
 -4722246.3590  2557539.8900 -3429486.2010                  APPROX POSITION XYZ
        0.0000        0.0000        0.0000                  ANTENNA: DELTA H/E/N
     1     1                                                WAVELENGTH FACT L1/2
    14    C1    P1    L1    D1    S1    C2    P2    L2    D2# / TYPES OF OBSERV
          S2    C5    L5    D5    S5                        # / TYPES OF OBSERV
     5.0000                                                 INTERVAL
     0                                                      RCV CLOCK OFFS APPL
    18                                                      LEAP SECONDS
teqc edited: all GLONASS satellites excluded                COMMENT
  2018     7     1     0     0    0.0000000     GPS         TIME OF FIRST OBS
Linux 2.6.32-573.12.1.x86_64|x86_64|gcc -static|Linux 64|=+ COMMENT
TPP                 Reference Data Shop 04-JUL-18 01:00     COMMENT
                                                            END OF HEADER
 18  7  1  0  0  0.0000000  0 11G01G08G10G11G14G18G20G22G27G31G32
  23832827.203                   125242353.99215                        39.500
                  23832833.422    97591446.48116                        25.500

  23275369.484                   122312866.29916                        44.500
                  23275376.883    95308722.93817                        31.000

  21835836.258                   114748098.71217                        48.300
                  21835841.977    89414098.68918                        36.500

  23537425.625                   123690006.92916                        46.300
                  23537428.824    96381823.80417                        30.000

  20077863.172                   105509892.86316                        46.500
                  20077865.852    82215506.68818                        39.000

  22037755.672                   115809190.10617                        47.500
                  22037759.750    90240931.18818                        35.500

  23461867.203                   123292929.94315                        41.000
                  23461870.422    96072417.24516                        22.500

  23958837.164                   125904553.84413                        37.000
                  23958839.504    98107444.93216                        22.000

  23699840.820                   124543481.93015                        41.000
                  23699848.141    97046862.06116                        26.000

  22137941.711                   116335688.82517                        49.000
                  22137946.973    90651190.45018                        36.300

  20864999.078                   109646319.31117                        49.800
                  20865005.039    85438692.75919                        42.000

 18  7  1  0  0  5.0000000  0 11G01G08G10G11G14G18G20G22G27G31G32
  23829646.578                   125225640.433 5      3342.376          39.500
                  23829653.418    97578422.949 6      2604.455          26.000

  23277162.930                   122322291.914 6     -1885.906          45.000
                  23277170.828    95316067.566 7     -1469.529          30.500

  21837284.758                   114755711.540 7     -1522.938          49.000
                  21837290.617    89420030.753 8     -1186.705          37.000

  23535570.906                   123680261.321 6      1948.310          45.500
                  23535574.227    96374229.826 7      1518.163          30.000

  20077713.406                   105509107.482 6       156.035          46.500
                  20077716.305    82214894.709 8       121.586          39.800

  22035533.797                   115797514.234 7      2334.418          47.500
                  22035537.938    90231833.102 8      1819.029          35.500

  23463989.625                   123304084.613 5     -2231.243          40.500
                  23463992.586    96081109.184 6     -1738.615          23.300

  23956235.102                   125890874.587 4      2735.858          37.800
                  23956236.121    98096785.773 6      2131.842          22.800

  23702641.766                   124558199.337 5     -2943.611          40.500
                  23702648.965    97058330.174 6     -2293.731          25.500

  22135342.195                   116322027.606 7      2731.591          49.500
                  22135346.676    90640545.363 8      2128.510          36.300

  20866521.578                   109654321.038 7     -1600.999          49.300
                  20866527.020    85444927.871 9     -1247.526          41.500

 18  7  1  0  0 10.0000000  0 11G01G08G10G11G14G18G20G22G27G31G32
  23826466.922                   125208931.257 5      3341.422          39.800
                  23826473.582    97565402.814 6      2603.720          25.500

  23278958.586                   122331726.950 6     -1887.801          44.500
                  23278966.324    95323419.549 7     -1471.020          31.500

  21838733.758                   114763329.034 7     -1523.913          48.500
                  21838740.219    89425966.465 8     -1187.467          37.300

  23533718.602                   123670525.827 6      1946.237          45.500
                  23533721.840    96366643.721 7      1516.550          29.500

  20077565.945                   105508335.050 6       153.408          46.000
                  20077569.324    82214292.815 8       119.538          39.000

  22033313.633                   115785847.745 7      2332.505          47.800
                  22033317.414    90222742.329 8      1817.531          35.500

  23466113.742                   123315243.171 5     -2232.087          39.500
                  23466116.121    96089804.163 6     -1739.291          22.000

  23953631.820                   125877195.257 4      2735.806          39.000
                  23953633.699    98086126.561 6      2131.801          22.800

  23705442.445                   124572918.250 5     -2943.960          40.500
                  23705448.906    97069799.455 6     -2293.999          24.500

  22132744.375                   116308374.519 7      2729.909          49.500
                  22132748.734    90629906.602 8      2127.196          36.000

  20868045.680                   109662330.944 7     -1602.699          49.500
                  20868051.398    85451169.365 9     -1248.863          42.300

 18  7  1  0  0 15.0000000  0 11G01G08G10G11G14G18G20G22G27G31G32
  23823288.578                   125192226.668 5      3340.502          40.000
                  23823294.879    97552386.255 7      2602.983          26.500

  23280755.266                   122341171.741 6     -1889.784          44.800
                  23280762.824    95330779.121 7     -1472.559          31.300

  21840184.680                   114770951.521 7     -1524.953          48.500
                  21840191.039    89431906.058 8     -1188.277          37.500

  23531867.547                   123660800.848 6      1944.100          45.500
                  23531870.867    96359065.819 7      1514.887          29.500

  20077422.266                   105507575.881 6       150.728          46.800
                  20077424.844    82213701.259 8       117.444          38.800

  22031095.477                   115774190.955 7      2330.524          47.300
                  22031099.258    90213659.116 8      1815.993          36.000

  23468237.984                   123326405.880 5     -2232.946          41.300
                  23468240.043    96098502.378 6     -1739.964          22.500

  23951028.844                   125863516.197 4      2735.711          38.800
                  23951030.582    98075467.556 6      2131.723          22.300

  23708244.039                   124587638.984 5     -2944.341          40.800
                  23708250.438    97081270.155 7     -2294.292          26.800

  22130147.992                   116294729.928 7      2728.183          50.300
                  22130151.891    90619274.459 8      2125.861          36.000

  20869571.961                   109670349.301 7     -1604.402          49.300
                  20869577.520    85457417.429 9     -1250.183          43.000

 18  7  1  0  0 20.0000000  0 11G01G08G10G11G14G18G20G22G27G31G32
  23820110.445                   125175526.468 5      3339.704          39.500
                  23820116.785    97539373.116 6      2602.363          26.000

  23282554.625                   122350626.038 6     -1891.626          45.500
                  23282561.566    95338146.104 7     -1473.990          30.300

  21841635.578                   114778578.680 7     -1525.797          48.000
                  21841642.199    89437849.293 8     -1188.927          37.300

  23530019.141                   123651086.024 6      1942.125          45.300
                  23530022.402    96351495.830 7      1513.336          29.500

  20077280.391                   105506829.685 7       148.192          47.300
                  20077282.789    82213119.808 8       115.474          38.500

  22028879.234                   115762543.615 6      2328.688          46.500
                  22028882.875    90204583.267 8      1814.560          36.000

  23470362.742                   123337572.471 5     -2233.663          40.000
                  23470364.684    96107203.601 6     -1740.513          22.300

  23948426.039                   125849837.177 4      2735.798          38.800
                  23948427.359    98064808.575 6      2131.778          22.800

  23711045.742                   124602361.202 5     -2944.580          40.500
                  23711052.383    97092742.009 6     -2294.480          26.000

  22127553.156                   116281093.570 7      2726.588          49.500
                  22127557.156    90608648.724 8      2124.616          36.500

  20871099.383                   109678375.852 7     -1605.989          49.000
                  20871105.102    85463671.889 9     -1251.428          42.500

 18  7  1  0  0 25.0000000  0 11G01G08G10G11G14G18G20G22G27G31G32
  23816933.445                   125158830.886 5      3338.734          40.000
                  23816939.324    97526363.580 7      2601.601          27.000

  23284355.242                   122360090.016 6     -1893.597          45.300
                  23284362.863    95345520.634 7     -1475.524          29.800

  21843088.297                   114786210.778 7     -1526.832          47.500
                  21843094.719    89443796.382 8     -1189.741          37.500

  23528172.445                   123641381.626 6      1940.025          45.500
                  23528175.625    96343933.958 7      1511.693          30.300

  20077140.508                   105506096.723 6       145.504          46.800
                  20077143.609    82212548.668 8       113.380          39.000

  22026664.656                   115750905.927 7      2326.746          47.500
                  22026668.715    90195514.936 8      1813.051          36.000

  23472488.164                   123348743.192 5     -2234.491          40.000
                  23472489.723    96115908.030 6     -1741.147          22.500

  23945822.742                   125836158.399 4      2735.719          39.000
                  23945824.461    98054149.790 6      2131.725          22.000

  23713847.461                   124617085.144 5     -2944.959          40.500
                  23713854.660    97104215.194 6     -2294.773          24.800

  22124959.570                   116267465.621 7      2724.907          50.000
                  22124963.531    90598029.543 8      2123.300          36.500

  20872628.422                   109686410.775 7     -1607.673          49.000
                  20872634.582    85469932.866 9     -1252.736          43.000

 18  7  1  0  0 30.0000000  0 11G01G08G10G11G14G18G20G22G27G31G32
  23813756.961                   125142139.727 5      3337.830          40.300
                  23813763.563    97513357.486 7      2600.903          26.300

  23286158.383                   122369563.452 6     -1895.494          44.500
                  23286165.504    95352902.528 7     -1477.008          30.500

  21844541.375                   114793847.640 6     -1527.789          46.500
                  21844547.414    89449747.178 8     -1190.480          37.500

  23526327.688                   123631687.544 6      1937.942          45.500
                  23526330.688    96336380.134 7      1510.084          29.500

  20077003.648                   105505376.801 6       142.890          46.500
                  20077006.527    82211987.685 8       111.349          39.000

  22024451.813                   115739277.692 6      2324.823          47.000
                  22024456.074    90186453.980 8      1811.550          35.800

  23474614.320                   123359917.880 5     -2235.295          40.000
                  23474615.961    96124615.596 6     -1741.792          22.500

  23943219.461                   125822479.717 4      2735.677          39.000
                  23943221.039    98043491.076 6      2131.686          23.800

  23716649.563                   124631810.636 5     -2945.277          40.800
                  23716657.063    97115689.610 7     -2295.015          26.500

  22122368.156                   116253845.991 7      2723.222          49.000
                  22122372.035    90587416.848 8      2121.987          36.000

  20874159.000                   109694453.943 7     -1609.320          49.000
                  20874164.441    85476200.263 9     -1254.020          42.300

 18  7  1  0  0 35.0000000  0 11G01G08G10G11G14G18G20G22G27G31G32
  23810581.922                   125125453.092 5      3336.961          40.000
                  23810587.762    97500354.914 7      2600.225          26.300

  23287962.844                   122379046.468 6     -1897.391          44.000
                  23287969.863    95360291.885 7     -1478.486          29.500

  21845996.078                   114801489.305 6     -1528.742          46.300
                  21846001.777    89455701.728 8     -1191.232          37.000

  23524484.703                   123622003.743 6      1935.916          45.300
                  23524487.805    96328834.313 7      1508.512          29.000

  20076868.852                   105504669.923 6       140.304          46.500
                  20076871.910    82211436.880 8       109.324          39.000

  22022240.711                   115727659.019 6      2322.967          46.800
                  22022245.371    90177400.477 8      1810.100          35.300

  23476741.641                   123371096.586 5     -2236.075          39.800
                  23476743.180    96133326.265 6     -1742.398          22.500

  23940616.844                   125808801.128 4      2735.700          39.000
                  23940618.605    98032832.441 6      2131.717          22.500

  23719451.563                   124646537.668 5     -2945.547          40.300
                  23719459.543    97127165.211 6     -2295.236          25.500

  22119777.711                   116240234.684 7      2721.583          48.800
                  22119781.570    90576810.643 8      2120.710          36.000

  20875690.820                   109702505.346 7     -1610.952          48.800
                  20875696.781    85482474.079 9     -1255.285          41.300

 18  7  1  0  0 40.0000000  0 11G01G08G10G11G14G18G20G22G27G31G32
  23807407.063                   125108771.051 5      3336.007          40.500
                  23807413.563    97487355.922 6      2599.490          25.500

  23289769.125                   122388539.001 6     -1899.262          43.800
                  23289775.863    95367688.652 7     -1479.946          30.800

  21847450.953                   114809135.815 6     -1529.712          46.300
                  21847456.754    89461660.041 8     -1191.987          37.500

  23522644.141                   123612330.332 6      1933.819          45.500
                  23522646.941    96321296.588 7      1506.874          29.800

  20076737.031                   105503976.161 6       137.682          47.000
                  20076739.930    82210896.287 8       107.278          38.500

  22020031.891                   115716050.009 6      2321.002          46.800
                  22020035.949    90168354.489 8      1808.575          35.500

  23478870.125                   123382279.351 5     -2236.882          39.800
                  23478871.324    96142040.100 6     -1743.002          21.500

  23938014.039                   125795122.767 4      2735.627          38.800
                  23938015.617    98022173.994 6      2131.651          22.800

  23722255.563                   124661266.327 5     -2945.886          41.000
                  23722262.121    97138642.057 6     -2295.492          26.000

  22117189.336                   116226631.833 7      2719.854          48.300
                  22117193.234    90566211.017 8      2119.371          35.800

  20877224.539                   109710565.052 7     -1612.621          49.000
                  20877230.320    85488754.363 9     -1256.585          42.300

 18  7  1  0  0 45.0000000  0 11G01G08G10G11G14G18G20G22G27G31G32
  23804233.219                   125092093.539 5      3335.150          41.000
                  23804239.820    97474360.454 6      2598.810          25.500

  23291577.430                   122398041.051 6     -1901.169          44.300
                  23291584.148    95375092.835 7     -1481.420          31.000

  21848907.094                   114816787.191 6     -1530.658          46.800
                  21848912.516    89467622.140 8     -1192.716          37.500

  23520804.688                   123602667.288 6      1931.777          45.500
                  23520807.469    96313766.948 7      1505.269          29.000

  20076607.531                   105503295.516 6       135.089          47.000
                  20076610.512    82210365.908 8       105.268          39.300

  22017824.492                   115704450.625 7      2319.094          47.300
                  22017828.594    90159316.010 8      1807.087          35.500

  23480998.344                   123393466.195 5     -2237.712          39.800
                  23480999.484    96150757.103 6     -1743.666          21.800

  23935411.023                   125781444.535 4      2735.632          39.000
                  23935412.504    98011515.636 6      2131.649          22.500

  23725057.945                   124675996.577 5     -2946.183          41.500
                  23725064.887    97150120.189 7     -2295.727          26.800

  22114601.656                   116213037.408 7      2718.201          49.000
                  22114605.938    90555617.969 8      2118.075          35.800

  20878760.023                   109718633.039 7     -1614.252          48.800
                  20878765.645    85495041.107 9     -1257.857          42.000

 18  7  1  0  0 50.0000000  0 11G01G08G10G11G14G18G20G22G27G31G32
  23801060.281                   125075420.630 5      3334.228          41.300
                  23801067.520    97461368.582 7      2598.083          26.800

  23293387.727                   122407552.597 6     -1903.027          45.500
                  23293394.566    95382504.437 7     -1482.874          30.300

  21850364.039                   114824443.399 6     -1531.606          46.800
                  21850369.758    89473588.019 8     -1193.464          37.300

  23518968.727                   123593014.590 6      1929.738          45.300
                  23518970.926    96306245.370 7      1503.692          29.500

  20076480.445                   105502627.984 6       132.464          46.300
                  20076483.246    82209845.751 8       103.218          39.000

  22015619.117                   115692860.854 6      2317.184          46.300
                  22015622.738    90150285.020 8      1805.602          36.000

  23483127.805                   123404657.000 4     -2238.451          39.000
                  23483129.645    96159477.211 6     -1744.221          22.500

  23932808.164                   125767766.445 4      2735.622          38.500
                  23932809.926    98000857.408 6      2131.621          22.800

  23727861.820                   124690728.328 5     -2946.443          41.000
                  23727868.121    97161599.467 7     -2295.928          26.500

  22112016.852                   116199451.384 7      2716.556          49.000
                  22112020.191    90545031.463 8      2116.799          35.800

  20880296.781                   109726709.246 7     -1615.874          49.000
                  20880302.500    85501334.257 9     -1259.122          42.000

 18  7  1  0  0 55.0000000  0 11G01G08G10G11G14G18G20G22G27G31G32
  23797888.844                   125058752.283 5      3333.314          40.300
                  23797895.344    97448380.257 6      2597.379          24.800

  23295199.125                   122417073.608 6     -1904.974          44.300
                  23295206.344    95389923.408 7     -1484.395          30.500

  21851822.219                   114832104.432 7     -1532.600          48.500
                  21851827.520    89479557.651 8     -1194.235          37.500

  23517133.266                   123583372.322 6      1927.634          45.500
                  23517136.344    96298731.903 7      1502.054          29.800

  20076355.430                   105501973.504 6       129.836          46.500
                  20076358.391    82209335.770 8       101.175          39.500

  22013415.055                   115681280.643 6      2315.242          47.000
                  22013419.395    90141261.478 8      1804.087          35.800

  23485258.766                   123415851.892 5     -2239.305          39.800
                  23485260.066    96168200.507 6     -1744.905          22.000

  23930204.805                   125754088.497 4      2735.566          38.800
                  23930207.484    97990199.277 6      2131.596          24.500

  23730664.461                   124705461.658 5     -2946.803          40.500
                  23730671.801    97173079.988 7     -2296.223          26.500

  22109433.031                   116185873.804 7      2714.835          48.500
                  22109436.410    90534451.530 8      2115.450          36.000

  20881835.484                   109734793.706 7     -1617.552          49.300
                  20881840.805    85507633.836 9     -1260.430          42.300

 18  7  1  0  1  0.0000000  0 11G01G08G10G11G14G18G20G22G27G31G32
  23794718.023                   125042088.452 5      3332.455          39.500
                  23794724.664    97435395.440 7      2596.740          26.300

  23297012.789                   122426604.072 6     -1906.784          44.300
                  23297020.270    95397349.735 7     -1485.800          30.500

  21853280.719                   114839770.244 7     -1533.493          48.800
                  21853286.258    89485531.004 8     -1194.927          37.800

  23515301.086                   123573740.386 6      1925.626          45.800
                  23515303.305    96291226.506 7      1500.486          29.500

  20076233.805                   105501332.050 6       127.311          46.300
                  20076236.746    82208835.939 8        99.197          39.000

  22011213.711                   115669710.066 6      2313.422          46.500
                  22011217.570    90132245.441 8      1802.674          36.000

  23487389.641                   123427050.719 5     -2239.982          39.800
                  23487391.781    96176926.850 6     -1745.435          22.500

  23927602.141                   125740410.643 4      2735.598          38.500
                  23927604.602    97979541.224 6      2131.614          22.800

  23733469.203                   124720196.423 5     -2947.027          39.800
                  23733475.324    97184561.604 6     -2296.370          25.800

  22106850.938                   116172304.635 7      2713.214          49.000
                  22106854.656    90523878.160 8      2114.193          36.000

  20883375.305                   109742886.350 7     -1619.134          49.000
                  20883380.703    85513939.788 9     -1261.657          42.000

 18  7  1  0  1  5.0000000  0 11G01G08G10G11G14G18G20G22G27G31G32
  23791547.500                   125025429.265 5      3331.446          39.500
                  23791554.020    97422414.255 7      2595.942          27.000

  23298828.227                   122436144.115 6     -1908.789          43.500
                  23298835.805    95404783.530 7     -1487.364          29.500

  21854740.180                   114847440.956 7     -1534.583          49.000
                  21854745.980    89491508.181 8     -1195.779          37.500

  23513470.023                   123564118.902 6      1923.417          46.000
                  23513472.664    96283729.248 7      1498.756          29.500

  20076114.289                   105500703.737 6       124.589          47.000
                  20076116.969    82208346.340 8        97.084          39.500

  22009013.570                   115658149.193 6      2311.375          47.000
                  22009017.270    90123236.966 8      1801.073          36.000

  23489521.867                   123438253.690 5     -2240.963          40.000
                  23489523.746    96185656.444 6     -1746.215          22.500

  23924999.398                   125726732.968 5      2735.498          40.000
                  23925002.117    97968883.305 6      2131.549          23.500

  23736272.398                   124734932.754 5     -2947.423          40.800
                  23736279.539    97196044.464 6     -2296.689          26.000

  22104270.031                   116158743.937 7      2711.435          49.500
                  22104273.953    90513311.393 8      2112.805          35.500

  20884916.898                   109750987.234 7     -1620.860          49.500
                  20884922.340    85520252.168 9     -1263.008          42.500

 18  7  1  0  1 10.0000000  0 11G01G08G10G11G14G18G20G22G27G31G32
  23788378.266                   125008774.628 5      3330.573          39.300
                  23788384.984    97409436.632 6      2595.256          26.000

  23300645.023                   122445693.429 6     -1910.626          44.000
                  23300652.664    95412224.549 7     -1488.799          29.300

  21856201.180                   114855116.400 7     -1535.479          49.500
                  21856206.359    89497489.042 8     -1196.479          37.500

  23511640.367                   123554507.716 6      1921.399          45.500
                  23511643.469    96276240.012 7      1497.190          28.300

  20075997.125                   105500088.388 6       122.027          47.000
                  20076000.105    82207866.843 8        95.086          39.000

  22006815.570                   115646597.858 7      2309.483          47.500
                  22006819.129    90114235.922 8      1799.599          35.800

  23491654.102                   123449460.579 5     -2241.704          40.000
                  23491656.301    96194389.074 6     -1746.794          22.800

  23922397.023                   125713055.401 5      2735.511          39.500
                  23922399.422    97958225.453 6      2131.573          24.000

  23739077.539                   124749670.459 5     -2947.660          40.800
                  23739084.520    97207528.367 7     -2296.878          26.300

  22101691.477                   116145191.634 7      2709.777          49.800
                  22101695.438    90502751.165 8      2111.511          36.000

  20886459.625                   109759096.261 7     -1622.463          49.000
                  20886465.547    85526570.894 9     -1264.267          41.500

 18  7  1  0  1 15.0000000  0 11G01G08G10G11G14G18G20G22G27G31G32
  23785209.922                   124992124.697 5      3329.625          39.500
                  23785216.602    97396462.676 6      2594.504          25.500

  23302464.883                   122455252.320 6     -1912.520          45.300
                  23302471.461    95419673.034 7     -1490.288          29.500

  21857662.836                   114862796.745 7     -1536.436          49.500
                  21857667.797    89503473.727 8     -1197.225          37.500

  23509813.867                   123544907.010 6      1919.331          44.300
                  23509816.668    96268758.941 7      1495.589          29.300

  20075882.227                   105499486.148 6       119.415          46.500
                  20075885.527    82207397.563 8        93.049          38.300

  22004619.117                   115635056.279 7      2307.575          48.500
                  22004622.758    90105242.483 8      1798.115          35.800

  23493787.266                   123460671.529 5     -2242.502          40.000
                  23493790.707    96203124.859 6     -1747.413          22.500

  23919794.164                   125699378.021 5      2735.482          39.800
                  23919796.605    97947567.760 6      2131.547          24.500

  23741882.141                   124764409.735 5     -2947.962          40.800
                  23741889.602    97219013.505 7     -2297.105          27.300

  22099114.570                   116131647.882 7      2708.083          49.500
                  22099118.469    90492197.591 8      2110.198          36.300

  20888004.539                   109767213.551 7     -1624.100          50.500
                  20888010.418    85532896.047 9     -1265.533          41.500

 18  7  1  0  1 20.0000000  0 11G01G08G10G11G14G18G20G22G27G31G32
  23782042.141                   124975479.251 5      3328.716          39.800
                  23782048.961    97383492.191 6      2593.802          25.800

  23304285.469                   122464820.497 6     -1914.391          45.300
                  23304292.270    95427128.768 7     -1491.735          29.500

  21859125.016                   114870481.827 7     -1537.403          48.500
                  21859130.496    89509462.096 8     -1197.978          37.300

  23507988.805                   123535316.652 6      1917.218          45.000
                  23507992.184    96261285.932 7      1493.938          28.300

  20075769.648                   105498896.854 6       116.798          46.800
                  20075773.129    82206938.377 8        91.010          38.500

  22002424.438                   115623524.253 7      2305.634          48.000
                  22002428.277    90096256.487 8      1796.594          36.000

  23495921.641                   123471886.380 5     -2243.285          40.000
                  23495925.563    96211863.691 6     -1748.021          22.000

  23917191.961                   125685700.650 5      2735.446          39.800
                  23917194.262    97936910.085 6      2131.494          24.500

  23744687.539                   124779150.330 5     -2948.251          40.500
                  23744694.598    97230499.675 6     -2297.340          25.300

  22096538.813                   116118112.510 7      2706.393          50.300
                  22096542.672    90481650.551 8      2108.878          36.000

  20889550.641                   109775338.895 7     -1625.724          49.000
                  20889556.160    85539227.488 9     -1266.800          42.000

 18  7  1  0  1 25.0000000  0 11G01G08G10G11G14G18G20G22G27G31G32
  23778875.484                   124958838.538 5      3327.788          40.500
                  23778882.445    97370525.411 7      2593.083          27.000

  23306107.484                   122474398.109 6     -1916.264          45.000
                  23306114.746    95434591.835 7     -1493.189          30.800

  21860587.797                   114878171.833 6     -1538.375          47.000
                  21860593.777    89515454.309 8     -1198.738          37.300

  23506165.508                   123525736.741 6      1915.161          45.000
                  23506168.930    96253821.068 7      1492.327          28.300

  20075660.766                   105498320.666 6       114.213          47.000
                  20075663.688    82206489.397 8        89.003          38.500

  22000232.117                   115612002.068 7      2303.660          47.300
                  22000235.738    90087278.161 8      1795.060          36.000

  23498056.641                   123483105.360 5     -2244.100          41.000
                  23498060.121    96220605.731 6     -1748.631          24.000

  23914588.563                   125672023.493 5      2735.459          40.500
                  23914590.961    97926252.560 6      2131.512          24.800

  23747492.523                   124793892.415 5     -2948.509          40.800
                  23747500.203    97241987.016 6     -2297.545          25.500

  22093964.531                   116104585.681 7      2704.714          50.800
                  22093968.512    90471110.166 8      2107.567          36.800

  20891098.641                   109783472.534 7     -1627.374          48.800
                  20891103.660    85545565.386 9     -1268.080          42.300

 18  7  1  0  1 30.0000000  0 11G01G08G10G11G14G18G20G22G27G31G32
  23775710.141                   124942202.444 5      3326.889          40.300
                  23775717.262    97357562.215 7      2592.385          26.800

  23307931.945                   122483985.165 6     -1918.138          44.500
                  23307939.285    95442062.269 7     -1494.655          29.300

  21862052.875                   114885866.624 6     -1539.313          46.300
                  21862058.395    89521450.241 8     -1199.463          37.300

  23504345.008                   123516167.255 6      1913.088          45.000
                  23504347.547    96246364.326 7      1490.720          29.000

  20075553.766                   105497757.499 6       111.622          47.000
                  20075556.586    82206050.570 8        86.978          39.000

  21998041.195                   115600489.522 7      2301.758          48.300
                  21998045.195    90078307.346 8      1793.572          35.800

  23500192.227                   123494328.319 5     -2244.859          40.000
                  23500196.445    96229350.906 6     -1749.223          24.500

  23911986.359                   125658346.451 5      2735.425          40.500
                  23911988.418    97915595.123 6      2131.508          24.300

  23750297.703                   124808635.919 5     -2948.758          39.800
                  23750305.383    97253475.452 6     -2297.723          25.500

  22091391.836                   116091067.334 7      2703.011          50.300
                  22091396.035    90460576.399 8      2106.237          36.500

  20892647.500                   109791614.281 7     -1628.974          48.500
                  20892653.379    85551909.597 9     -1269.324          42.000

 18  7  1  0  1 35.0000000  0 11G01G08G10G11G14G18G20G22G27G31G32
  23772544.945                   124925571.102 5      3325.846          39.800
                  23772552.023    97344602.755 7      2591.563          27.300

  23309758.383                   122493581.732 6     -1920.082          44.000
                  23309765.262    95449540.102 7     -1496.170          30.000

  21863517.594                   114893566.339 6     -1540.366          46.500
                  21863523.773    89527450.017 8     -1200.290          37.300

  23502526.008                   123506608.209 6      1910.944          45.000
                  23502528.930    96238915.723 7      1489.049          29.300

  20075449.172                   105497207.436 6       108.945          45.800
                  20075452.012    82205621.954 8        84.892          38.500

  21995852.734                   115588986.754 7      2299.751          47.800
                  21995856.473    90069344.146 8      1792.020          36.300

  23502328.727                   123505555.402 5     -2245.766          40.500
                  23502333.387    96238099.287 6     -1749.972          24.000

  23909383.539                   125644669.646 5      2735.330          40.300
                  23909385.578    97904937.890 6      2131.418          25.500

  23753103.719                   124823380.910 5     -2949.155          39.800
                  23753111.117    97264965.064 6     -2298.034          24.300

  22088821.617                   116077557.539 7      2701.249          50.300
                  22088824.918    90450049.299 8      2104.867          36.500

  20894198.664                   109799764.242 7     -1630.674          48.500
                  20894204.383    85558260.216 9     -1270.653          41.800

 18  7  1  0  1 40.0000000  0 11G01G08G10G11G14G18G20G22G27G31G32
  23769381.398                   124908944.307 5      3324.953          40.500
                  23769388.457    97331646.818 7      2590.856          28.000

  23311586.508                   122503187.490 6     -1921.893          45.000
                  23311593.188    95457025.104 7     -1497.585          29.500

  21864983.813                   114901270.767 6     -1541.302          47.000
                  21864989.551    89533453.466 8     -1201.014          37.500

  23500708.664                   123497059.542 6      1908.881          45.000
                  23500712.004    96231475.201 7      1487.436          29.300

  20075346.891                   105496670.316 6       106.367          46.000
                  20075349.512    82205203.419 8        82.884          38.800

  21993665.617                   115577493.553 7      2297.838          48.500
                  21993669.195    90060388.407 8      1790.519          35.800

  23504465.586                   123516786.388 5     -2246.530          39.500
                  23504471.027    96246850.709 6     -1750.551          24.500

  23906781.141                   125630992.967 5      2735.325          40.000
                  23906783.000    97894280.734 6      2131.410          25.000

  23755909.703                   124838127.170 5     -2949.370          39.800
                  23755917.625    97276455.638 6     -2298.207          25.500

  22086252.031                   116064056.207 7      2699.583          50.500
                  22086256.371    90439528.787 8      2103.563          36.800

  20895750.805                   109807922.259 7     -1632.261          48.500
                  20895756.824    85564617.114 9     -1271.892          42.000

 18  7  1  0  1 45.0000000  0 11G01G08G10G11G14G18G20G22G27G31G32
  23766218.141                   124892322.209 5      3324.039          39.500
                  23766225.320    97318694.510 7      2590.174          26.500

  23313416.063                   122512802.531 6     -1923.740          45.000
                  23313422.801    95464517.342 7     -1499.018          29.500

  21866450.914                   114908980.046 7     -1542.248          48.500
                  21866456.813    89539460.694 8     -1201.750          37.000

  23498893.508                   123487521.303 6      1906.790          44.500
                  23498896.867    96224042.799 7      1485.818          29.500

  20075247.086                   105496146.198 6       103.795          46.500
                  20075249.664    82204795.012 8        80.883          39.000

  21991480.594                   115566010.050 7      2295.941          48.000
                  21991484.293    90051440.223 8      1789.045          36.000

  23506603.820                   123528021.396 5     -2247.326          39.500
                  23506608.641    96255605.252 6     -1751.170          23.300

  23904178.742                   125617316.456 5      2735.312          40.300
                  23904180.242    97883623.718 6      2131.404          25.300

  23758716.359                   124852874.831 5     -2949.662          40.000
                  23758723.680    97287947.309 6     -2298.434          24.500

  22083684.633                   116050563.433 7      2697.870          50.500
                  22083687.914    90429014.945 8      2102.230          36.500

  20897305.023                   109816088.429 7     -1633.888          49.300
                  20897310.824    85570980.355 9     -1273.155          41.300

 18  7  1  0  1 50.0000000  0 11G01G08G10G11G14G18G20G22G27G31G32
  23763056.000                   124875704.859 5      3323.056          40.500
                  23763062.820    97305745.950 7      2589.394          26.500

  23315247.625                   122522426.984 6     -1925.658          45.300
                  23315254.504    95472016.930 7     -1500.521          31.000

  21867918.773                   114916694.175 7     -1543.233          48.800
                  21867924.852    89545471.710 8     -1202.519          36.800

  23497080.406                   123477993.543 6      1904.680          45.000
                  23497083.785    96216618.587 7      1484.168          28.800

  20075149.867                   105495635.151 6       101.125          47.000
                  20075152.727    82204396.796 8        78.803          39.000

  21989296.977                   115554536.329 7      2293.952          48.300
                  21989301.137    90042499.667 8      1787.485          36.300

  23508741.922                   123539260.480 5     -2248.183          40.500
                  23508747.762    96264362.974 6     -1751.827          23.300

  23901575.945                   125603640.111 5      2735.214          40.500
                  23901577.906    97872966.832 6      2131.342          25.500

  23761522.625                   124867623.837 5     -2949.938          39.300
                  23761530.285    97299440.037 7     -2298.638          26.300

  22081118.297                   116037079.249 7      2696.133          50.500
                  22081122.438    90418507.790 8      2100.883          36.300

  20898860.781                   109824262.723 7     -1635.538          49.800
                  20898866.359    85577349.939 9     -1274.445          41.300

 18  7  1  0  1 55.0000000  0 11G01G08G10G11G14G18G20G22G27G31G32
  23759894.602                   124859092.274 5      3322.139          40.800
                  23759901.941    97292801.064 7      2588.680          27.000

  23317080.969                   122532060.707 6     -1927.468          44.500
                  23317087.328    95479523.715 7     -1501.913          30.300

  21869387.656                   114924413.231 7     -1544.187          48.500
                  21869393.617    89551486.557 8     -1203.260          37.000

  23495269.820                   123468476.345 6      1902.617          45.300
                  23495272.602    96209202.584 7      1482.555          28.500

  20075054.805                   105495137.197 6        98.595          47.000
                  20075058.023    82204008.782 8        76.823          39.000

  21987115.695                   115543072.464 7      2291.997          47.300
                  21987119.695    90033566.781 8      1785.976          36.800

  23510882.188                   123550503.610 4     -2248.908          39.000
                  23510887.449    96273123.852 6     -1752.392          24.000

  23898973.422                   125589964.060 5      2735.199          40.300
                  23898975.543    97862310.185 6      2131.315          24.300

  23764330.180                   124882374.322 5     -2950.198          40.300
                  23764337.379    97310933.907 6     -2298.839          25.500

  22078553.875                   116023603.711 7      2694.435          50.000
                  22078558.137    90408007.386 8      2099.554          36.500

  20900417.898                   109832445.218 7     -1637.120          48.800
                  20900423.578    85583725.909 9     -1275.676          41.800

 18  7  1  0  2  0.0000000  0 11G01G08G10G11G14G18G20G22G27G31G32
  23756734.242                   124842484.396 5      3321.164          40.000
                  23756741.363    97279859.881 7      2587.918          26.800

  23318916.164                   122541703.747 6     -1929.394          45.500
                  23318922.266    95487037.784 7     -1503.428          30.800

  21870857.680                   114932137.119 7     -1545.193          49.500
                  21870863.758    89557505.169 8     -1204.049          37.500

  23493460.625                   123458969.610 6      1900.489          44.800
                  23493464.184    96201794.727 7      1480.911          29.300

  20074962.430                   105494652.220 6        95.936          46.500
                  20074965.570    82203630.880 8        74.755          39.500

  21984935.672                   115531618.336 7      2290.016          48.000
                  21984939.652    90024641.487 8      1784.424          35.800

  23513022.102                   123561750.823 5     -2249.796          40.000
                  23513028.223    96281887.912 6     -1753.086          23.800

  23896370.961                   125576288.142 5      2735.151          40.800
                  23896372.383    97851653.641 6      2131.277          24.500

  23767137.844                   124897126.053 5     -2950.466          41.300
                  23767144.863    97322428.764 7     -2299.064          27.800

  22075991.531                   116010136.724 7      2692.680          50.500
                  22075994.992    90397513.638 8      2098.188          36.500

  20901976.164                   109840635.790 7     -1638.796          50.300
                  20901981.844    85590108.173 9     -1276.990          41.800

 18  7  1  0  2  5.0000000  0 11G01G08G10G11G14G18G20G22G27G31G32
  23753574.844                   124825881.306 5      3320.223          41.000
                  23753581.844    97266922.402 7      2587.181          26.800

  23320752.344                   122551356.194 6     -1931.249          45.300
                  23320759.383    95494559.175 7     -1504.872          30.500

  21872328.453                   114939865.889 7     -1546.158          49.300
                  21872334.492    89563527.576 8     -1204.794          38.000

  23491653.266                   123449473.388 6      1898.397          44.500
                  23491656.707    96194395.077 7      1479.260          29.500

  20074873.070                   105494180.294 6        93.337          46.800
                  20074875.891    82203263.140 8        72.732          39.500

  21982758.133                   115520174.012 7      2288.090          47.800
                  21982761.711    90015723.838 8      1782.925          35.800

  23515162.961                   123573002.059 5     -2250.566          39.300
                  23515168.941    96290655.117 6     -1753.667          24.300

  23893768.484                   125562612.470 5      2735.109          40.500
                  23893769.684    97840997.266 7      2131.260          26.500

  23769944.664                   124911879.168 5     -2950.750          41.300
                  23769951.883    97333924.688 7     -2299.277          27.000

  22073430.352                   115996678.357 7      2690.972          50.000
                  22073433.633    90387026.599 8      2096.864          36.000

  20903536.539                   109848834.510 7     -1640.409          49.500
                  20903542.238    85596496.788 9     -1278.243          42.000

 18  7  1  0  2 10.0000000  0 11G01G08G10G11G14G18G20G22G27G31G32
  23750415.945                   124809282.927 5      3319.272          40.800
                  23750422.625    97253988.598 7      2586.452          27.500

  23322591.688                   122561017.863 6     -1933.086          46.300
                  23322597.848    95502087.738 7     -1506.307          30.500

  21873799.953                   114947599.478 7     -1547.138          48.300
                  21873806.113    89569553.745 8     -1205.556          37.000

  23489847.844                   123439987.592 6      1896.285          44.300
                  23489851.445    96187003.547 7      1477.622          28.800

  20074785.430                   105493721.322 6        90.728          46.800
                  20074788.668    82202905.501 8        70.695          39.500

  21980581.734                   115508739.415 7      2286.119          47.800
                  21980585.953    90006813.764 8      1781.389          36.300

  23517304.984                   123584257.373 5     -2251.428          40.500
                  23517311.145    96299425.467 6     -1754.341          24.300

  23891166.219                   125548936.912 5      2735.059          41.500
                  23891167.297    97830340.994 6      2131.221          25.800

  23772752.844                   124926633.563 5     -2951.012          41.000
                  23772759.984    97345421.623 7     -2299.488          27.000

  22070870.992                   115983228.572 7      2689.233          49.800
                  22070874.492    90376546.259 8      2095.502          36.000

  20905097.719                   109857041.291 7     -1642.023          49.500
                  20905104.297    85602891.684 9     -1279.498          42.000

 18  7  1  0  2 15.0000000  0 11G01G08G10G11G14G18G20G22G27G31G32
  23747258.203                   124792689.256 5      3318.353          40.000
                  23747265.305    97241058.472 7      2585.723          26.500

  23324431.648                   122570688.825 6     -1934.928          46.000
                  23324437.988    95509623.539 7     -1507.732          30.800

  21875272.695                   114955337.872 7     -1548.070          47.500
                  21875278.914    89575583.669 8     -1206.293          37.500

  23488044.766                   123430512.253 6      1894.233          44.800
                  23488048.125    96179620.175 7      1476.019          28.300

  20074700.727                   105493275.282 6        88.164          47.000
                  20074703.527    82202557.940 8        68.693          38.500

  21978407.695                   115497314.547 6      2284.172          46.300
                  21978411.414    89997911.270 8      1779.874          36.000

  23519447.523                   123595516.625 5     -2252.172          40.800
                  23519453.723    96308198.937 6     -1754.943          24.500

  23888564.539                   125535261.526 5      2735.057          41.000
                  23888565.680    97819684.861 6      2131.201          25.300

  23775560.961                   124941389.201 5     -2951.233          41.500
                  23775567.660    97356919.510 6     -2299.662          25.500

  22068313.156                   115969787.334 7      2687.549          50.000
                  22068316.195    90366072.578 8      2094.186          35.300

  20906661.266                   109865256.112 7     -1643.607          48.500
                  20906667.426    85609292.848 9     -1280.739          41.500

 18  7  1  0  2 20.0000000  0 11G01G08G10G11G14G18G20G22G27G31G32
  23744101.742                   124776100.405 5      3317.394          41.000
                  23744108.961    97228132.102 6      2584.982          25.500

  23326273.703                   122580368.971 6     -1936.741          46.000
                  23326280.203    95517166.499 7     -1509.149          29.800

  21876745.914                   114963081.130 6     -1549.029          46.500
                  21876752.652    89581617.367 8     -1207.032          37.000

  23486243.688                   123421047.390 6      1892.157          43.800
                  23486246.848    96172244.953 7      1474.412          29.300

  20074618.328                   105492842.215 6        85.576          46.800
                  20074621.207    82202220.487 8        66.678          38.800

  21976235.773                   115485899.491 6      2282.243          46.800
                  21976239.414    89989016.413 8      1778.378          36.000

  23521591.305                   123606779.924 5     -2252.949          40.000
                  23521596.684    96316975.534 6     -1755.557          24.500

  23885962.039                   125521586.350 5      2735.020          41.500
                  23885962.840    97809028.879 6      2131.190          26.000

  23778368.984                   124956146.115 5     -2951.472          40.800
                  23778376.184    97368418.403 7     -2299.855          27.500

  22065757.477                   115956354.731 7      2685.841          50.500
                  22065760.215    90355605.620 8      2092.865          36.000

  20908226.180                   109873479.008 7     -1645.204          48.500
                  20908231.918    85615700.293 9     -1281.971          42.300

 18  7  1  0  2 25.0000000  0 11G01G08G10G11G14G18G20G22G27G31G32
  23740945.961                   124759516.270 5      3316.440          40.500
                  23740952.582    97215209.397 6      2584.235          26.000

  23328118.047                   122590058.334 6     -1938.609          46.000
                  23328123.945    95524716.644 7     -1510.602          31.300

  21878220.313                   114970829.191 6     -1549.994          46.500
                  21878226.934    89587654.815 8     -1207.785          37.300

  23484444.188                   123411592.990 6      1890.052          43.500
                  23484447.727    96164877.882 7      1472.770          29.300

  20074538.211                   105492422.098 6        82.982          47.000
                  20074541.172    82201893.121 8        64.661          39.500

  21974065.133                   115474494.259 7      2280.260          47.300
                  21974068.512    89980129.223 8      1776.830          36.000

  23523734.766                   123618047.235 5     -2253.767          40.500
                  23523740.984    96325755.250 6     -1756.188          25.500

  23883359.383                   125507911.300 6      2734.999          42.300
                  23883360.504    97798373.009 6      2131.170          26.000

  23781177.305                   124970904.246 5     -2951.704          42.000
                  23781183.844    97379918.231 6     -2300.031          25.500

  22063202.438                   115942930.766 7      2684.109          49.500
                  22063206.059    90345145.396 8      2091.512          35.800

  20909792.320                   109881709.928 7     -1646.836          49.000
                  20909797.898    85622113.995 9     -1283.243          41.800

 18  7  1  0  2 30.0000000  0 11G01G08G10G11G14G18G20G22G27G31G32
  23737791.164                   124742936.901 5      3315.525          41.000
                  23737797.703    97202290.417 7      2583.520          27.000

  23329963.367                   122599756.910 6     -1940.438          46.000
                  23329969.688    95532273.984 7     -1512.037          30.800

  21879695.617                   114978582.069 7     -1550.924          47.500
                  21879701.719    89593696.016 8     -1208.514          37.500

  23482647.641                   123402149.092 6      1887.964          43.800
                  23482650.859    96157518.999 7      1471.144          28.800

  20074460.648                   105492014.941 7        80.420          47.300
                  20074463.668    82201575.860 8        62.665          38.800

  21971896.656                   115463098.783 6      2278.350          46.500
                  21971900.617    89971249.631 8      1775.337          35.800

  23525880.461                   123629318.529 5     -2254.555          39.500
                  23525885.680    96334538.087 6     -1756.810          24.300

  23880757.539                   125494236.455 5      2734.996          42.000
                  23880758.258    97787717.277 7      2131.164          26.800

  23783985.844                   124985663.581 5     -2951.914          40.500
                  23783992.184    97391419.028 7     -2300.195          26.800

  22060650.031                   115929515.430 7      2682.409          49.800
                  22060653.371    90334691.900 8      2090.185          36.500

  20911360.484                   109889948.862 7     -1648.397          49.300
                  20911366.023    85628533.945 9     -1284.465          41.800

 18  7  1  0  2 35.0000000  0 11G01G08G10G11G14G18G20G22G27G31G32
  23734636.344                   124726362.380 5      3314.553          41.000
                  23734643.625    97189375.211 7      2582.767          27.300

  23331810.648                   122609464.699 6     -1942.243          45.500
                  23331816.949    95539838.493 7     -1513.436          31.300

  21881171.680                   114986339.833 7     -1551.917          48.500
                  21881178.461    89599741.015 8     -1209.278          37.300

  23480852.281                   123392715.697 6      1885.869          44.300
                  23480855.820    96150168.309 7      1469.513          29.300

  20074386.148                   105491620.792 6        77.830          47.000
                  20074388.949    82201268.729 8        60.649          39.500

  21969729.992                   115451713.217 6      2276.371          46.800
                  21969734.051    89962377.764 8      1773.794          35.800

  23528026.266                   123640593.881 5     -2255.322          40.000
                  23528031.105    96343324.067 6     -1757.384          24.300

  23878155.125                   125480561.783 5      2734.957          41.800
                  23878156.266    97777061.705 7      2131.121          26.500

  23786794.641                   125000424.172 5     -2952.179          41.500
                  23786800.879    97402920.785 7     -2300.412          26.500

  22058098.313                   115916108.776 7      2680.670          50.300
                  22058101.973    90324245.164 8      2088.832          36.500

  20912929.844                   109898195.870 7     -1649.994          49.300
                  20912935.402    85634960.183 9     -1285.708          41.300

 18  7  1  0  2 40.0000000  0 11G01G08G10G11G14G18G20G22G27G31G32
  23731483.203                   124709792.675 5      3313.578          40.300
                  23731490.684    97176463.739 7      2582.025          27.800

  23333659.742                   122619181.673 6     -1944.111          46.300
                  23333665.941    95547410.157 7     -1514.890          31.000

