     2.11           OBSERVATION DATA    M (MIXED)           RINEX VERSION / TYPE
teqc  2019Feb25                         20240504 22:35:50UTCPGM / RUN BY / DATE
NEWE                                                        MARKER NAME
Newcastle East                                              MARKER NUMBER
CORSnet-NSW         NSW                                     OBSERVER / AGENCY
                    LEICA GR30                              REC # / TYPE / VERS
725070              LEIAR25.R4      LEIT                    ANT # / TYPE
 -4722484.6480  2533368.6920 -3446900.9220                  APPROX POSITION XYZ
        0.0000        0.0000        0.0000                  ANTENNA: DELTA H/E/N
     1     1                                                WAVELENGTH FACT L1/2
    14    C1    P1    L1    D1    S1    C2    P2    L2    D2# / TYPES OF OBSERV
          S2    C5    L5    D5    S5                        # / TYPES OF OBSERV
     5.0000                                                 INTERVAL
     0                                                      RCV CLOCK OFFS APPL
    18                                                      LEAP SECONDS
teqc edited: all GLONASS satellites excluded                COMMENT
  2018     7     1     0     0    0.0000000     GPS         TIME OF FIRST OBS
Linux 2.6.32-573.12.1.x86_64|x86_64|gcc -static|Linux 64|=+ COMMENT
TPP                 Reference Data Shop 04-JUL-18 01:00     COMMENT
                                                            END OF HEADER
 18  7  1  0  0  0.0000000  0 11G01G08G10G11G14G18G20G22G27G31G32
  23831416.766                   125234945.74217                        47.800
                  23831418.906    97585683.86419                        42.000

  23299642.086                   122440422.14017                        50.300
                  23299644.324    95408121.13819                        43.000

  21816398.359                   114645942.36218                        53.000
                  21816399.918    89334506.54919                        47.000

  23542575.781                   123717063.73317                        49.500
                  23542573.820    96402904.87618                        40.800

  20080371.766                   105523075.71417                        50.300
                  20080369.824    82225763.69719                        49.500

  22039904.711                   115820486.86317                        51.500
                  22039904.449    90249733.89119                        45.500

  23443875.961                   123198379.75617                        48.500
                  23443874.699    95998737.78918                        39.500

  23968180.805                   125953640.96217                        48.300
                  23968177.344    98145686.24719                        42.000

  23727968.625                   124691295.50416                        46.500
                  23727971.203    97162043.53719                        42.500

  22146184.852                   116378990.14418                        54.500
                  22146183.113    90684942.22819                        45.500

  20851918.102                   109577572.34018                        54.300
                  20851919.262    85385118.00019                        49.800

 18  7  1  0  0  5.0000000  0 11G01G08G10G11G14G18G20G22G27G31G32
  23828238.922                   125218245.836 7      3339.478          47.800
                  23828241.082    97572670.950 9      2602.188          41.500

  23301447.445                   122449909.245 7     -1898.334          50.300
                  23301449.645    95415513.681 9     -1479.217          42.800

  21817848.773                   114653564.323 8     -1524.906          53.000
                  21817850.313    89340445.737 9     -1188.245          47.500

  23540733.047                   123707380.205 7      1935.758          49.000
                  23540731.105    96395359.276 8      1508.385          41.000

  20080200.805                   105522177.365 7       178.506          50.300
                  20080198.863    82225063.686 9       139.095          48.800

  22037690.734                   115808852.209 7      2326.042          51.500
                  22037690.496    90240667.929 9      1812.498          45.000

  23446007.063                   123209578.630 7     -2240.232          48.000
                  23446005.824    96007464.179 8     -1745.631          38.500

  23965565.023                   125939894.924 7      2749.064          48.300
                  23965561.523    98134975.059 8      2142.132          40.800

  23730771.344                   124706024.063 6     -2945.965          46.000
                  23730773.965    97173520.334 9     -2295.555          43.500

  22143572.773                   116365263.568 8      2744.534          54.500
                  22143571.012    90674246.200 9      2138.600          45.300

  20853422.766                   109585479.267 8     -1582.170          54.300
                  20853423.906    85391279.235 9     -1232.858          49.500

 18  7  1  0  0 10.0000000  0 11G01G08G10G11G14G18G20G22G27G31G32
  23825061.945                   125201550.323 7      3338.779          47.300
                  23825064.086    97559661.459 9      2601.650          42.800

  23303254.547                   122459405.735 7     -1900.019          49.800
                  23303256.766    95422913.533 9     -1480.534          43.800

  21819300.133                   114661191.048 8     -1525.697          53.000
                  21819301.633    89346388.644 9     -1188.853          47.800

  23538892.227                   123697706.862 7      1933.871          48.500
                  23538890.285    96387821.610 9      1506.915          42.000

  20080032.305                   105521291.976 7       176.065          50.300
                  20080030.363    82224373.772 9       137.193          49.500

  22035478.594                   115797227.049 7      2324.305          51.300
                  22035478.332    90231609.366 9      1811.149          45.500

  23448138.867                   123220781.444 7     -2240.857          48.300
                  23448137.668    96016193.634 8     -1746.127          40.000

  23962949.281                   125926148.905 7      2749.227          48.500
                  23962945.680    98124263.873 8      2142.257          40.800

  23733574.359                   124720754.077 6     -2946.078          46.500
                  23733576.961    97184998.261 9     -2295.649          43.000

  22140962.234                   116351545.096 8      2743.068          54.300
                  22140960.453    90663556.491 9      2137.454          45.500

  20854928.984                   109593394.411 8     -1583.665          54.500
                  20854930.125    85397446.880 9     -1234.025          49.800

 18  7  1  0  0 15.0000000  0 11G01G08G10G11G14G18G20G22G27G31G32
  23821885.945                   125184859.960 7      3337.507          47.300
                  23821888.105    97546655.985 9      2600.659          43.300

  23305063.609                   122468912.359 7     -1902.291          49.500
                  23305065.809    95430321.297 9     -1482.305          43.300

  21820752.539                   114668823.262 8     -1527.034          53.300
                  21820753.980    89352335.818 9     -1189.895          47.300

  23537053.523                   123688044.504 7      1931.446          49.500
                  23537051.625    96380292.509 8      1505.023          40.300

  20079866.406                   105520420.284 7       173.090          50.500
                  20079864.465    82223694.529 9       134.876          49.000

  22033268.352                   115785612.067 8      2322.035          52.300
                  22033268.090    90222558.725 9      1809.382          45.500

  23450271.547                   123231988.892 7     -2242.029          48.300
                  23450270.387    96024926.727 8     -1747.038          40.000

  23960333.664                   125912403.590 7      2748.846          47.800
                  23960330.043    98113553.231 9      2141.956          42.500

  23736377.781                   124735486.309 6     -2946.766          46.500
                  23736380.480    97196477.916 9     -2296.177          42.300

  22138353.391                   116337835.544 8      2741.045          54.000
                  22138351.609    90652873.727 9      2135.877          45.500

  20856436.898                   109601318.522 8     -1585.683          54.500
                  20856438.039    85403621.511 9     -1235.595          49.800

 18  7  1  0  0 20.0000000  0 11G01G08G10G11G14G18G20G22G27G31G32
  23818710.602                   125168173.430 6      3337.029          46.800
                  23818712.801    97533653.509 9      2600.280          42.300

  23306874.344                   122478427.802 7     -1903.773          49.500
                  23306876.523    95437735.935 9     -1483.464          42.800

  21822205.734                   114676459.638 8     -1527.576          53.800
                  21822207.133    89358286.240 9     -1190.315          47.000

  23535216.688                   123678391.743 7      1929.828          50.000
                  23535214.746    96372770.868 8      1503.764          40.300

  20079702.867                   105519560.933 7       170.920          50.000
                  20079700.945    82223024.913 9       133.182          49.000

  22031059.836                   115774006.011 7      2320.526          52.000
                  22031059.555    90213515.047 9      1808.202          45.300

  23452404.867                   123243199.664 7     -2242.387          48.500
                  23452403.727    96033662.371 8     -1747.314          39.500

  23957717.883                   125898657.681 7      2749.264          47.500
                  23957714.305    98102842.146 9      2142.279          41.500

  23739181.383                   124750219.318 6     -2946.635          46.800
                  23739184.102    97207958.181 9     -2296.081          41.800

  22135745.992                   116324133.551 8      2739.823          54.000
                  22135744.191    90642196.852 9      2134.927          45.500

  20857946.266                   109609250.230 8     -1586.902          54.800
                  20857947.406    85409802.062 9     -1236.547          49.500

 18  7  1  0  0 25.0000000  0 11G01G08G10G11G14G18G20G22G27G31G32
  23815536.023                   125151490.989 6      3336.054          46.500
                  23815538.285    97520654.218 9      2599.519          42.800

  23308686.789                   122487952.283 7     -1905.728          49.800
                  23308688.969    95445157.597 9     -1484.981          42.800

  21823659.773                   114684100.417 8     -1528.608          53.800
                  21823661.133    89364240.088 9     -1191.123          47.000

  23533381.742                   123668748.892 7      1927.684          50.500
                  23533379.781    96365256.971 8      1502.089          40.800

  20079541.727                   105518714.205 7       168.237          50.300
                  20079539.785    82222365.125 9       131.092          49.000

  22028853.055                   115762409.089 7      2318.548          51.800
                  22028852.754    90204478.480 9      1806.661          45.500

  23454538.883                   123254414.041 7     -2243.256          48.500
                  23454537.723    96042400.848 8     -1747.992          38.500

  23955102.039                   125884911.459 7      2749.174          47.800
                  23955098.520    98092130.823 8      2142.208          41.000

  23741985.180                   124764953.395 7     -2947.006          47.500
                  23741987.918    97219439.280 9     -2296.370          42.000

  22133140.055                   116310439.388 8      2738.113          54.300
                  22133138.273    90631526.080 9      2133.594          45.800

  20859457.141                   109617189.795 8     -1588.642          54.500
                  20859458.262    85415988.740 9     -1237.903          49.500

 18  7  1  0  0 30.0000000  0 11G01G08G10G11G14G18G20G22G27G31G32
  23812362.680                   125134814.959 6      3334.935          46.300
                  23812364.918    97507659.905 9      2598.648          42.300

  23310501.367                   122497488.034 7     -1907.809          49.800
                  23310503.527    95452588.050 9     -1486.607          43.000

  21825115.094                   114691747.926 8     -1529.783          53.500
                  21825116.414    89370199.188 9     -1192.041          47.300

  23531549.141                   123659118.275 7      1925.392          50.500
                  23531547.121    96357752.587 8      1500.306          41.000

  20079383.445                   105517882.412 7       165.408          50.000
                  20079381.504    82221716.973 9       128.889          49.500

  22026648.453                   115750823.559 7      2316.430          52.000
                  22026648.133    90195450.793 9      1805.013          45.000

  23456674.047                   123265634.317 7     -2244.284          48.800
                  23456672.848    96051143.908 8     -1748.799          39.300

  23952486.539                   125871167.208 7      2748.938          47.800
                  23952483.059    98081421.015 8      2142.028          40.000

  23744789.664                   124779690.863 7     -2947.510          48.300
                  23744792.383    97230923.005 9     -2296.757          41.300

  22130536.070                   116296755.378 8      2736.258          54.300
                  22130534.270    90620863.217 9      2132.151          45.500

  20860969.945                   109625139.516 8     -1590.500          54.500
                  20860971.023    85422183.325 9     -1239.348          49.800

 18  7  1  0  0 35.0000000  0 11G01G08G10G11G14G18G20G22G27G31G32
  23809190.063                   125118142.831 6      3334.254          46.000
                  23809192.363    97494668.633 9      2598.124          42.800

  23312317.625                   122507032.642 7     -1909.470          49.800
                  23312319.805    95460025.396 9     -1487.896          43.300

  21826571.219                   114699399.657 8     -1530.532          53.500
                  21826572.520    89376161.574 9     -1192.622          47.500

  23529718.383                   123649497.322 7      1923.553          50.800
                  23529716.324    96350255.741 8      1498.871          41.000

  20079227.508                   105517062.970 7       163.043          50.000
                  20079225.566    82221078.449 9       127.044          49.500

  22024445.555                   115739247.008 7      2314.743          51.800
                  22024445.215    90186430.105 9      1803.698          45.300

  23458809.867                   123276857.982 7     -2244.856          48.800
                  23458808.586    96059889.619 8     -1749.241          38.500

  23949870.961                   125857422.437 7      2749.130          47.300
                  23949867.480    98070710.805 9      2142.181          41.500

  23747594.266                   124794429.133 7     -2947.581          47.800
                  23747597.004    97242407.373 9     -2296.810          41.500

  22127933.531                   116283079.009 8      2734.810          54.300
                  22127931.750    90610206.317 9      2131.019          45.500

  20862484.180                   109633096.848 8     -1591.926          54.300
                  20862485.238    85428383.844 9     -1240.460          49.800

 18  7  1  0  0 40.0000000  0 11G01G08G10G11G14G18G20G22G27G31G32
  23806017.742                   125101472.321 6      3333.666          46.500
                  23806020.082    97481678.629 9      2597.666          42.800

  23314135.086                   122516583.679 7     -1911.046          49.000
                  23314137.305    95467467.765 9     -1489.125          43.500

  21828027.695                   114707053.296 8     -1531.218          52.800
                  21828028.977    89382125.442 9     -1193.159          47.800

  23527889.063                   123639883.781 7      1921.782          50.500
                  23527886.922    96342764.664 8      1497.493          40.500

  20079073.484                   105516253.605 7       160.744          50.300
                  20079071.523    82220447.777 9       125.255          49.300

  22022243.891                   115727677.122 7      2313.125          52.000
                  22022243.551    90177414.612 9      1802.431          45.000

  23460945.867                   123288082.717 7     -2245.364          48.500
                  23460944.566    96068636.162 8     -1749.634          39.300

  23947254.844                   125843674.820 7      2749.419          47.300
                  23947251.363    98059998.385 8      2142.400          40.500

  23750398.602                   124809165.908 7     -2947.568          47.500
                  23750401.383    97253890.568 8     -2296.808          41.000

  22125332.016                   116269408.006 8      2733.444          54.000
                  22125330.234    90599553.597 9      2129.954          45.300

  20863999.422                   109641059.501 8     -1593.272          54.500
                  20864000.480    85434588.506 9     -1241.508          49.500

 18  7  1  0  0 45.0000000  0 11G01G08G10G11G14G18G20G22G27G31G32
  23802846.625                   125084808.110 6      3332.281          46.500
                  23802849.023    97468693.540 9      2596.583          41.800

  23315954.688                   122526145.807 7     -1913.395          49.300
                  23315956.906    95474918.784 9     -1490.963          42.800

  21829485.375                   114714713.529 8     -1532.644          53.000
                  21829486.695    89388094.449 9     -1194.268          47.800

  23526062.008                   123630282.334 7      1919.236          50.000
                  23526059.789    96335283.005 8      1495.513          40.800

  20078922.289                   105515459.052 7       157.646          50.300
                  20078920.328    82219828.644 9       122.841          49.300

  22020044.438                   115716118.614 8      2310.702          52.500
                  22020044.039    90168407.980 9      1800.545          45.000

  23463082.984                   123299313.206 7     -2246.638          49.000
                  23463081.625    96077387.182 8     -1750.625          38.500

  23944639.023                   125829929.016 7      2748.941          47.300
                  23944635.602    98049287.365 9      2142.032          41.500

  23753203.539                   124823905.867 7     -2948.324          48.500
                  23753206.277    97265376.234 8     -2297.394          41.000

  22122732.391                   116255747.105 8      2731.307          54.300
                  22122730.629    90588908.745 9      2128.292          45.300

  20865516.578                   109649032.149 8     -1595.395          54.800
                  20865517.617    85440800.955 9     -1243.163          49.800

 18  7  1  0  0 50.0000000  0 11G01G08G10G11G14G18G20G22G27G31G32
  23799676.641                   125068149.873 6      3331.135          46.800
                  23799679.063    97455713.102 9      2595.688          42.500

  23317776.328                   122535718.740 7     -1915.476          49.500
                  23317778.590    95482378.212 9     -1492.577          42.800

  21830944.273                   114722379.998 8     -1533.840          53.300
                  21830945.574    89394068.325 9     -1195.204          47.500

  23524237.141                   123620692.591 7      1916.971          50.500
                  23524234.879    96327810.482 8      1493.738          40.500

  20078773.805                   105514678.876 7       154.842          49.800
                  20078771.863    82219220.711 9       120.658          49.500

  22017847.055                   115704571.136 7      2308.561          51.500
                  22017846.613    90159409.939 9      1798.880          45.000

  23465221.125                   123310549.089 7     -2247.652          48.500
                  23465219.766    96086142.420 8     -1751.417          39.500

  23942023.523                   125816184.708 7      2748.715          47.300
                  23942020.125    98038577.518 8      2141.858          41.000

  23756009.039                   124838648.630 7     -2948.821          47.800
                  23756011.758    97276864.116 9     -2297.785          42.000

  22120134.633                   116242095.897 8      2729.426          54.300
                  22120132.895    90578271.446 9      2126.825          45.300

  20867035.578                   109657014.404 8     -1597.268          55.000
                  20867036.598    85447020.898 9     -1244.626          49.500

 18  7  1  0  0 55.0000000  0 11G01G08G10G11G14G18G20G22G27G31G32
  23796507.461                   125051495.583 6      3330.825          46.800
                  23796509.840    97442735.735 9      2595.450          42.000

  23319599.648                   122545300.351 7     -1916.735          49.800
                  23319601.887    95489844.395 9     -1493.555          43.500

  21832403.953                   114730050.652 8     -1534.176          52.800
                  21832405.293    89400045.456 9     -1195.462          47.800

  23522414.141                   123611112.575 7      1915.534          50.000
                  23522411.820    96320345.532 8      1492.626          41.000

  20078627.688                   105513911.047 7       152.869          50.000
                  20078625.746    82218622.403 9       119.119          49.000

  22015651.375                   115693032.526 7      2307.263          52.000
                  22015650.855    90150418.814 9      1797.865          45.000

  23467359.906                   123321788.362 7     -2247.841          48.300
                  23467358.547    96094900.283 8     -1751.561          39.300

  23939407.898                   125802439.842 7      2749.301          47.500
                  23939404.598    98027867.237 9      2142.314          41.500

  23758814.641                   124853392.129 7     -2948.485          47.500
                  23758817.320    97288352.540 9     -2297.519          41.800

  22117538.313                   116228452.356 8      2728.383          54.000
                  22117536.594    90567640.122 9      2126.013          45.500

  20868556.023                   109665004.220 8     -1598.280          55.000
                  20868557.023    85453246.729 9     -1245.415          49.800

 18  7  1  0  1  0.0000000  0 11G01G08G10G11G14G18G20G22G27G31G32
  23793339.141                   125034845.645 7      3329.538          47.300
                  23793341.461    97429761.757 9      2594.445          41.300

  23321424.703                   122554891.159 7     -1919.016          49.800
                  23321426.941    95497317.747 9     -1495.343          42.800

  21833864.492                   114737725.950 8     -1535.542          52.800
                  21833865.852    89406026.195 9     -1196.525          47.500

  23520593.086                   123601542.763 7      1913.038          50.300
                  23520590.766    96312888.547 8      1490.677          40.500

  20078483.984                   105513156.017 7       149.866          50.000
                  20078482.043    82218034.068 9       116.783          49.300

  22013457.477                   115681503.406 8      2304.958          52.500
                  22013456.918    90141435.089 9      1796.069          44.800

  23469499.422                   123333031.395 7     -2249.029          48.300
                  23469498.000    96103661.083 8     -1752.488          40.300

  23936792.305                   125788694.866 7      2748.893          47.300
                  23936789.086    98017156.858 9      2141.997          41.800

  23761620.500                   124868136.799 7     -2949.131          48.500
                  23761623.141    97299841.887 9     -2298.026          41.500

  22114943.570                   116214816.997 8      2726.310          54.300
                  22114941.852    90557015.181 9      2124.393          45.300

  20870077.984                   109673002.040 8     -1600.305          55.000
                  20870078.965    85459478.796 9     -1246.991          49.500

 18  7  1  0  1  5.0000000  0 11G01G08G10G11G14G18G20G22G27G31G32
  23790171.805                   125018200.816 7      3328.652          47.800
                  23790174.086    97416791.767 9      2593.755          41.500

  23323251.648                   122564491.783 7     -1920.826          49.800
                  23323253.848    95504798.751 9     -1496.750          42.500

  21835326.055                   114745406.557 8     -1536.465          52.800
                  21835327.434    89412011.084 9     -1197.245          47.500

  23518774.047                   123591983.746 7      1911.023          50.000
                  23518771.766    96305439.954 8      1489.109          40.800

  20078342.828                   105512414.455 7       147.317          50.000
                  20078340.949    82217456.231 9       114.788          49.300

  22011265.516                   115669984.403 7      2303.090          52.000
                  22011264.895    90132459.234 9      1794.620          45.300

  23471639.742                   123344278.910 7     -2249.781          48.800
                  23471638.344    96112425.393 8     -1753.072          39.300

  23934176.766                   125774950.402 7      2748.933          48.300
                  23934173.664    98006446.906 8      2142.023          40.500

  23764426.680                   124882883.314 7     -2949.370          47.500
                  23764429.340    97311332.674 9     -2298.208          42.300

  22112350.477                   116201190.443 8      2724.683          54.000
                  22112348.797    90546397.089 9      2123.130          45.300

  20871601.602                   109681008.520 8     -1601.903          54.800
                  20871602.543    85465717.612 9     -1248.236          49.500

 18  7  1  0  1 10.0000000  0 11G01G08G10G11G14G18G20G22G27G31G32
  23787005.266                   125001560.276 6      3327.770          46.500
                  23787007.484    97403825.098 9      2593.069          41.500

  23325080.266                   122574101.353 7     -1922.639          49.000
                  23325082.465    95512286.722 9     -1498.158          43.300

  21836788.453                   114753091.713 8     -1537.395          53.000
                  21836789.895    89417999.517 9     -1197.970          47.300

  23516956.945                   123582434.853 7      1908.968          50.000
                  23516954.684    96297999.261 8      1487.505          40.500

  20078204.070                   105511685.571 7       144.763          49.800
                  20078202.230    82216888.270 9       112.804          49.500

  22009075.336                   115658474.748 8      2301.175          52.300
                  22009074.695    90123490.668 9      1793.125          45.300

  23473780.805                   123355530.144 7     -2250.545          48.300
                  23473779.383    96121192.584 8     -1753.674          40.500

  23931561.242                   125761205.786 7      2748.943          48.800
                  23931558.184    97995736.814 9      2142.034          41.500

  23767233.063                   124897630.859 7     -2949.588          47.800
                  23767235.723    97322824.268 8     -2298.381          41.000

  22109758.938                   116187571.945 8      2723.060          54.300
                  22109757.277    90535785.279 9      2121.865          45.300

  20873126.703                   109689022.888 8     -1603.500          54.500
                  20873127.645    85471962.572 9     -1249.483          49.800

 18  7  1  0  1 15.0000000  0 11G01G08G10G11G14G18G20G22G27G31G32
  23783839.523                   124984924.237 6      3326.797          46.500
                  23783841.785    97390861.971 9      2592.302          41.800

  23326910.648                   122583720.176 7     -1924.557          48.800
                  23326912.887    95519781.902 9     -1499.655          43.800

  21838251.773                   114760781.582 8     -1538.393          53.000
                  21838253.234    89423991.617 9     -1198.748          47.300

  23515141.820                   123572896.209 7      1906.845          49.800
                  23515139.539    96290566.548 8      1485.853          40.500

  20078067.766                   105510969.510 7       142.125          49.300
                  20078065.965    82216330.298 9       110.747          49.300

  22006886.938                   115646974.620 7      2299.209          51.800
                  22006886.297    90114529.533 9      1791.594          45.300

  23475922.547                   123366785.218 7     -2251.370          48.300
                  23475921.188    96129962.760 8     -1754.310          39.800

  23928945.742                   125747461.080 7      2748.914          48.500
                  23928942.703    97985026.648 8      2142.011          40.800

  23770039.703                   124912379.615 7     -2949.914          47.500
                  23770042.305    97334316.793 9     -2298.632          42.300

  22107168.953                   116173961.714 8      2721.325          54.000
                  22107167.313    90525179.916 9      2120.511          45.800

  20874653.320                   109697045.304 8     -1605.169          54.000
                  20874654.242    85478213.803 9     -1250.779          49.800

 18  7  1  0  1 20.0000000  0 11G01G08G10G11G14G18G20G22G27G31G32
  23780674.422                   124968291.845 6      3326.193          46.500
                  23780676.762    97377901.667 9      2591.843          41.500

  23328742.563                   122593347.246 7     -1926.049          48.300
                  23328744.863    95527283.519 9     -1500.818          44.000

  21839715.836                   114768475.304 8     -1539.024          52.800
                  21839717.316    89429986.712 9     -1199.237          47.300

  23513328.445                   123563366.943 7      1905.124          49.800
                  23513326.184    96283141.148 8      1484.514          41.000

  20077933.750                   105510265.445 7       139.881          49.500
                  20077931.969    82215781.676 9       108.994          49.300

  22004700.195                   115635483.158 7      2297.638          51.500
                  22004699.535    90105575.143 9      1790.369          45.500

  23478064.883                   123378043.280 7     -2251.812          48.300
                  23478063.563    96138735.273 8     -1754.656          39.500

  23926330.039                   125733715.413 7      2749.211          48.300
                  23926327.039    97974315.742 8      2142.236          40.800

  23772846.398                   124927128.669 7     -2949.814          47.300
                  23772848.957    97345809.553 9     -2298.559          41.800

  22104580.414                   116160358.854 8      2720.004          53.800
                  22104578.754    90514580.289 9      2119.481          45.500

  20876181.305                   109705074.880 8     -1606.462          54.300
                  20876182.203    85484470.613 9     -1251.786          50.300

 18  7  1  0  1 25.0000000  0 11G01G08G10G11G14G18G20G22G27G31G32
  23777510.422                   124951665.299 6      3324.743          47.000
                  23777512.820    97364945.917 9      2590.707          41.800

  23330576.508                   122602984.781 7     -1928.459          48.300
                  23330578.887    95534793.297 9     -1502.699          44.500

  21841181.055                   114776175.089 8     -1540.553          52.800
                  21841182.535    89435986.543 9     -1200.427          47.500

  23511517.266                   123553849.310 7      1902.494          49.500
                  23511515.004    96275724.802 8      1482.465          39.800

  20077802.430                   105509575.559 7       136.741          49.800
                  20077800.691    82215244.102 9       106.550          49.300

  22002515.555                   115624002.656 7      2295.116          52.000
                  22002514.895    90096629.301 9      1788.404          45.800

  23480208.227                   123389306.598 7     -2253.204          48.300
                  23480206.906    96147511.882 8     -1755.744          39.300

  23923714.578                   125719971.091 7      2748.652          49.000
                  23923711.637    97963605.887 9      2141.804          41.800

  23775653.563                   124941880.234 7     -2950.603          47.500
                  23775656.121    97357304.275 9     -2299.169          42.300

  22101993.672                   116146765.589 8      2717.781          53.800
                  22101992.012    90503988.140 9      2117.751          45.500

  20877711.063                   109713113.836 8     -1608.643          54.500
                  20877711.961    85490734.729 9     -1253.486          50.000

 18  7  1  0  1 30.0000000  0 11G01G08G10G11G14G18G20G22G27G31G32
  23774347.398                   124935043.803 6      3323.715          46.800
                  23774349.820    97351994.106 9      2589.904          42.500

  23332412.266                   122612632.038 7     -1930.401          48.800
                  23332414.727    95542310.630 9     -1504.202          43.300

  21842647.258                   114783880.083 8     -1541.594          52.800
                  21842648.738    89441990.438 9     -1201.240          47.500

  23509708.125                   123544342.449 7      1900.323          48.800
                  23509705.906    96268316.860 8      1480.767          40.500

  20077673.648                   105508899.005 7       134.066          50.000
                  20077671.949    82214716.911 9       104.465          49.000

  22000332.813                   115612532.235 8      2293.108          52.300
                  22000332.172    90087691.315 9      1786.838          45.300

  23482352.383                   123400574.274 7     -2254.069          48.300
                  23482351.043    96156291.871 8     -1756.413          39.000

  23921099.242                   125706227.203 7      2748.539          49.300
                  23921096.301    97952896.364 9      2141.718          41.500

  23778461.039                   124956633.480 6     -2950.957          47.000
                  23778463.598    97368800.316 9     -2299.445          42.300

  22099408.617                   116133181.114 8      2716.021          54.000
                  22099406.977    90493402.846 9      2116.380          45.000

  20879242.445                   109721161.308 8     -1610.353          54.800
                  20879243.344    85497005.491 9     -1254.818          49.500

 18  7  1  0  1 35.0000000  0 11G01G08G10G11G14G18G20G22G27G31G32
  23771185.578                   124918428.448 7      3322.740          47.500
                  23771188.000    97339047.090 9      2589.146          42.300

  23334250.125                   122622290.107 7     -1932.316          48.800
                  23334252.625    95549836.396 9     -1505.697          44.000

  21844114.680                   114791591.432 8     -1542.605          52.800
                  21844116.141    89447999.274 9     -1202.028          47.500

  23507901.242                   123534847.467 7      1898.208          49.000
                  23507899.043    96260918.181 8      1479.125          40.500

  20077547.625                   105508236.923 7       131.428          50.300
                  20077545.965    82214201.011 9       102.414          49.300

  21998152.211                   115601073.007 7      2291.125          52.000
                  21998151.570    90078762.039 9      1785.294          45.500

  23484497.625                   123411847.450 7     -2254.912          47.800
                  23484496.266    96165076.170 8     -1757.080          40.000

  23918484.242                   125692484.943 7      2748.494          49.300
                  23918481.320    97942188.101 9      2141.684          41.500

  23781269.039                   124971389.473 7     -2951.246          47.300
                  23781271.578    97380298.481 9     -2299.677          41.800

  22096825.438                   116119606.554 8      2714.289          54.300
                  22096823.816    90482825.270 9      2115.028          45.300

  20880775.680                   109729218.384 8     -1612.008          54.500
                  20880776.539    85503283.735 9     -1256.115          49.800

 18  7  1  0  1 40.0000000  0 11G01G08G10G11G14G18G20G22G27G31G32
  23768024.539                   124901817.178 7      3321.918          47.800
                  23768027.039    97326103.240 9      2588.506          42.300

  23336089.586                   122631956.724 7     -1934.016          49.000
                  23336092.164    95557368.819 9     -1507.021          43.500

  21845582.898                   114799307.007 8     -1543.462          52.800
                  21845584.320    89454011.403 9     -1202.698          47.500

  23506096.227                   123525362.283 7      1896.248          48.800
                  23506094.027    96253527.125 8      1477.594          40.800

  20077423.969                   105507587.174 7       128.948          50.000
                  20077422.328    82213694.710 9       100.479          49.300

  21995973.336                   115589622.834 8      2289.293          52.300
                  21995972.695    90069839.828 9      1783.865          45.500

  23486643.484                   123423124.002 7     -2255.587          48.300
                  23486642.086    96173863.092 8     -1757.599          39.300

  23915869.125                   125678742.198 7      2748.570          49.300
                  23915866.246    97931479.489 9      2141.743          41.800

  23784077.164                   124986146.117 7     -2951.385          47.300
                  23784079.684    97391797.163 9     -2299.781          42.800

  22094243.758                   116106039.815 8      2712.712          54.300
                  22094242.137    90472253.786 9      2113.802          45.300

  20882310.344                   109737282.987 8     -1613.522          54.800
                  20882311.184    85509567.838 9     -1257.292          49.800

 18  7  1  0  1 45.0000000  0 11G01G08G10G11G14G18G20G22G27G31G32
  23764864.422                   124885210.546 7      3320.846          48.300
                  23764866.941    97313163.013 9      2587.674          41.800

  23337930.805                   122641632.424 7     -1935.950          49.500
                  23337933.406    95564908.321 9     -1508.534          43.000

  21847052.039                   114807027.368 8     -1544.550          52.800
                  21847053.438    89460027.264 9     -1203.543          47.300

  23504293.203                   123515887.464 7      1894.041          49.800
                  23504291.004    96246144.160 8      1475.876          39.800

  20077302.766                   105506950.282 7       126.247          50.300
                  20077301.145    82213198.434 9        98.374          49.000

  21993796.258                   115578182.291 7      2287.272          52.000
                  21993795.637    90060925.115 9      1782.286          45.500

  23488790.102                   123434404.487 7     -2256.497          48.500
                  23488788.723    96182653.082 8     -1758.307          39.500

  23913254.039                   125664999.508 7      2748.447          49.000
                  23913251.117    97920770.889 9      2141.649          41.800

  23786885.500                   125000903.946 7     -2951.743          47.500
                  23786887.980    97403296.770 9     -2300.059          42.500

  22091663.672                   116092481.479 8      2710.905          54.300
                  22091662.070    90461688.859 9      2112.389          45.000

  20883846.523                   109745355.662 8     -1615.290          54.800
                  20883847.363    85515858.236 9     -1258.668          49.800

 18  7  1  0  1 50.0000000  0 11G01G08G10G11G14G18G20G22G27G31G32
  23761705.125                   124868608.118 7      3320.179          48.500
                  23761707.645    97300226.058 9      2587.150          42.000

  23339773.727                   122651316.908 7     -1937.566          49.800
                  23339776.367    95572454.670 9     -1509.787          43.000

  21848522.016                   114814752.100 8     -1545.272          53.000
                  21848523.355    89466046.535 9     -1204.112          47.500

  23502492.125                   123506422.612 7      1892.204          50.000
                  23502489.906    96238768.942 8      1474.453          40.500

  20077183.930                   105506325.876 7       123.914          50.000
                  20077182.328    82212711.882 9        96.554          49.500

  21991620.938                   115566751.018 7      2285.554          52.000
                  21991620.336    90052017.633 9      1780.951          45.500

  23490937.406                   123445688.514 7     -2257.069          48.300
                  23490936.047    96191445.829 8     -1758.757          39.000

  23910638.805                   125651256.400 7      2748.678          48.800
                  23910635.926    97910061.994 9      2141.823          41.500

  23789693.984                   125015662.487 7     -2951.746          48.000
                  23789696.465    97414796.930 9     -2300.063          41.500

  22089085.094                   116078931.113 8      2709.457          54.300
                  22089083.516    90451130.144 9      2111.263          45.300

  20885384.141                   109753435.912 8     -1616.633          54.800
                  20885384.980    85522154.533 9     -1259.714          49.800

 18  7  1  0  1 55.0000000  0 11G01G08G10G11G14G18G20G22G27G31G32
  23758546.602                   124852009.671 7      3319.296          48.500
                  23758549.082    97287292.201 9      2586.464          41.300

  23341618.227                   122661009.716 7     -1939.305          49.300
                  23341620.867    95580007.507 9     -1511.147          43.300

  21849992.797                   114822480.920 8     -1546.155          53.000
                  21849994.059    89472068.998 9     -1204.798          47.300

  23500692.906                   123496967.471 7      1890.181          49.500
                  23500690.668    96231401.295 8      1472.868          41.000

  20077067.406                   105505713.683 7       121.407          49.800
                  20077065.867    82212234.849 9        94.601          49.000

  21989447.352                   115555328.746 8      2283.676          52.300
                  21989446.750    90043117.164 9      1779.487          45.800

  23493085.305                   123456975.771 7     -2257.768          47.800
                  23493083.926    96200241.077 8     -1759.296          39.800

  23908023.445                   125637512.695 7      2748.728          48.000
                  23908020.605    97899352.616 9      2141.866          42.000

  23792502.563                   125030421.504 7     -2951.895          47.800
                  23792505.063    97426297.456 9     -2300.176          41.300

  22086507.977                   116065388.464 8      2707.849          54.000
                  22086506.438    90440577.445 9      2110.008          45.000

  20886923.180                   109761523.533 8     -1618.175          54.800
                  20886924.020    85528456.573 9     -1260.916          49.800

 18  7  1  0  2  0.0000000  0 11G01G08G10G11G14G18G20G22G27G31G32
  23755389.242                   124835417.382 7      3318.111          48.500
                  23755391.664    97274363.143 9      2585.541          42.300

  23343464.703                   122670713.152 7     -1941.405          49.500
                  23343467.363    95587568.620 9     -1512.783          43.000

  21851464.773                   114830216.032 8     -1547.382          53.300
                  21851465.953    89478096.346 9     -1205.746          47.300

  23498895.945                   123487524.222 7      1887.843          49.800
                  23498893.684    96224042.914 8      1471.048          40.800

  20076953.625                   105505115.834 7       118.564          49.800
                  20076952.105    82211768.992 9        92.388          49.500

  21987275.914                   115543917.702 8      2281.466          52.300
                  21987275.293    90034225.437 9      1777.766          45.500

  23495234.266                   123468268.469 7     -2258.827          47.800
                  23495232.867    96209040.589 8     -1760.129          39.500

  23905408.359                   125623770.557 7      2748.447          48.000
                  23905405.598    97888644.458 9      2141.651          42.500

  23795311.602                   125045183.132 7     -2952.392          47.500
                  23795314.121    97437800.032 9     -2300.569          41.500

  22083932.734                   116051855.741 8      2705.886          53.500
                  22083931.234    90430032.470 9      2108.483          45.500

  20888464.000                   109769620.675 8     -1620.046          54.300
                  20888464.840    85534766.028 9     -1262.371          49.800

 18  7  1  0  2  5.0000000  0 11G01G08G10G11G14G18G20G22G27G31G32
  23752232.563                   124818828.833 7      3317.257          48.800
                  23752234.961    97261437.003 9      2584.880          41.500

  23345312.805                   122680424.846 7     -1943.144          49.500
                  23345315.445    95595136.172 9     -1514.136          43.300

  21852937.492                   114837955.020 8     -1548.262          53.300
                  21852938.594    89484126.727 9     -1206.440          47.000

  23497100.781                   123478090.417 7      1885.848          49.800
                  23497098.520    96216691.904 9      1469.488          41.800

  20076842.125                   105504529.926 7       116.065          49.800
                  20076840.645    82211312.438 9        90.441          49.300

  21985106.172                   115532515.444 8      2279.595          52.300
                  21985105.492    90025340.555 9      1776.310          44.800

  23497383.766                   123479564.215 7     -2259.547          47.300
                  23497382.406    96217842.460 8     -1760.680          40.800

  23902793.141                   125610027.572 7      2748.520          48.000
                  23902790.402    97877935.641 9      2141.706          42.300

  23798120.703                   125059944.997 7     -2952.542          48.000
                  23798123.203    97449302.768 9     -2300.680          41.300

  22081358.938                   116038330.512 8      2704.283          53.300
                  22081357.457    90419493.337 9      2107.234          45.500

  20890006.180                   109777724.910 8     -1621.554          54.800
                  20890007.039    85541081.020 9     -1263.553          49.500

 18  7  1  0  2 10.0000000  0 11G01G08G10G11G14G18G20G22G27G31G32
  23749077.000                   124802245.993 7      3316.374          48.500
                  23749079.379    97248515.312 9      2584.188          42.000

  23347162.805                   122690146.594 7     -1944.883          49.800
                  23347165.426    95602711.550 9     -1515.490          43.000

  21854411.313                   114845699.787 8     -1549.156          53.300
                  21854412.371    89490161.611 9     -1207.132          47.000

  23495307.781                   123468668.012 7      1883.833          50.000
                  23495305.543    96209349.773 8      1467.926          41.000

  20076733.250                   105503957.852 7       113.561          49.800
                  20076731.789    82210866.665 9        88.491          49.500

  21982938.477                   115521123.828 8      2277.735          52.500
                  21982937.738    90016463.967 9      1774.860          45.300

  23499534.203                   123490864.895 7     -2260.272          47.500
                  23499532.883    96226648.181 8     -1761.251          40.500

  23900178.125                   125596285.607 7      2748.565          48.000
                  23900175.406    97867227.617 9      2141.739          41.800

  23800930.180                   125074708.922 7     -2952.699          47.300
                  23800932.719    97460807.123 9     -2300.801          41.800

  22078786.891                   116024814.716 8      2702.662          53.300
                  22078785.492    90408961.556 9      2105.969          45.800

  20891550.078                   109785838.138 8     -1623.102          54.800
                  20891550.918    85547403.014 9     -1264.755          49.500

 18  7  1  0  2 15.0000000  0 11G01G08G10G11G14G18G20G22G27G31G32
  23745922.383                   124785668.224 7      3315.257          48.500
                  23745924.742    97235597.562 8      2583.322          40.500

  23349014.625                   122699877.863 7     -1946.899          49.500
                  23349017.227    95610294.357 9     -1517.066          43.000

  21855886.133                   114853449.771 8     -1550.301          53.800
                  21855887.133    89496200.550 9     -1208.025          46.800

  23493516.820                   123459256.406 7      1881.579          50.300
                  23493514.602    96202016.044 8      1466.169          40.500

  20076626.891                   105503398.998 7       110.839          50.000
                  20076625.449    82210431.191 9        86.366          49.500

  21980772.656                   115509742.335 7      2275.596          51.300
                  21980771.895    90007595.273 9      1773.192          45.300

  23501685.461                   123502169.943 7     -2261.255          47.300
                  23501684.160    96235457.305 8     -1762.015          39.500

  23897563.180                   125582544.094 7      2748.391          48.300
                  23897560.520    97856519.960 9      2141.604          41.300

  23803739.945                   125089474.337 7     -2953.083          47.500
                  23803742.484    97472312.637 8     -2301.108          41.000

  22076216.555                   116011307.777 8      2700.791          53.300
                  22076215.195    90398436.670 9      2104.513          45.300

  20893095.578                   109793959.772 8     -1624.881          54.500
                  20893096.398    85553731.564 9     -1266.143          49.500

 18  7  1  0  2 20.0000000  0 11G01G08G10G11G14G18G20G22G27G31G32
  23742768.703                   124769095.435 7      3314.325          48.000
                  23742771.043    97222683.702 9      2582.591          42.300

  23350868.227                   122709618.366 7     -1948.683          49.500
                  23350870.766    95617884.351 9     -1518.452          43.300

  21857361.898                   114861204.769 8     -1551.250          53.800
                  21857362.879    89502243.399 9     -1208.768          47.300

  23491727.883                   123449855.421 7      1879.505          49.800
                  23491725.684    96194690.599 9      1464.550          41.500

  20076523.047                   105502853.260 7       108.259          50.000
                  20076521.586    82210005.937 9        84.360          49.500

  21978608.695                   115498370.828 7      2273.644          51.500
                  21978607.934    89998734.356 9      1771.672          45.300

  23503837.484                   123513479.160 7     -2262.020          47.300
                  23503836.285    96244269.676 8     -1762.613          40.500

  23894948.305                   125568802.930 7      2748.381          48.300
                  23894945.727    97845812.552 8      2141.594          40.500

  23806549.922                   125104241.079 6     -2953.283          46.800
                  23806552.480    97483819.174 9     -2301.251          41.500

  22073647.852                   115997809.532 8      2699.107          53.300
                  22073646.570    90387918.564 9      2103.198          45.300

  20894642.664                   109802089.614 8     -1626.457          54.800
                  20894643.465    85560066.504 9     -1267.371          49.800

 18  7  1  0  2 25.0000000  0 11G01G08G10G11G14G18G20G22G27G31G32
  23739615.984                   124752527.803 7      3313.034          47.800
                  23739618.305    97209773.865 9      2581.583          41.500

  23352723.609                   122719368.383 7     -1950.866          49.500
                  23352726.129    95625481.762 9     -1520.151          42.800

  21858838.656                   114868965.001 8     -1552.542          53.300
                  21858839.617    89508290.337 9     -1209.771          47.300

  23489940.961                   123440465.298 7      1877.096          49.000
                  23489938.820    96187373.624 9      1462.672          41.300

  20076421.688                   105502320.785 7       105.350          49.800
                  20076420.266    82209591.020 9        82.093          49.500

  21976446.656                   115487009.551 7      2271.347          51.800
                  21976445.918    89989881.409 9      1769.881          45.300

  23505990.383                   123524792.760 7     -2263.152          47.500
                  23505989.203    96253085.454 8     -1763.495          39.500

  23892333.523                   125555062.276 7      2748.005          48.300
                  23892330.984    97835105.557 8      2141.305          40.300

  23809360.180                   125119009.318 6     -2953.861          46.000
                  23809362.859    97495326.910 9     -2301.714          42.300

  22071080.875                   115984320.237 8      2697.060          53.500
                  22071079.637    90377407.437 9      2101.607          45.300

  20896191.320                   109810227.885 8     -1628.409          54.500
                  20896192.102    85566408.016 9     -1268.892          49.500

 18  7  1  0  2 30.0000000  0 11G01G08G10G11G14G18G20G22G27G31G32
  23736464.203                   124735965.240 7      3312.125          47.800
                  23736466.582    97196867.978 9      2580.873          41.500

  23354580.789                   122729127.758 7     -1952.624          49.500
                  23354583.289    95633086.473 9     -1521.527          43.500

  21860316.375                   114876730.366 8     -1553.486          53.000
                  21860317.355    89514341.272 9     -1210.508          47.300

  23488156.102                   123431085.924 7      1875.026          49.300
                  23488154.023    96180065.029 9      1461.057          41.500

  20076322.867                   105501801.488 7       102.815          50.000
                  20076321.445    82209186.373 9        80.115          49.300

  21974286.516                   115475658.325 7      2269.442          51.300
                  21974285.816    89981036.306 9      1768.397          45.000

  23508144.102                   123536110.638 7     -2263.896          47.500
                  23508142.941    96261904.569 8     -1764.072          39.500

  23889718.805                   125541322.011 7      2748.026          48.300
                  23889716.266    97824398.867 8      2141.319          40.300

  23812170.703                   125133778.900 6     -2953.992          47.000
                  23812173.422    97506835.648 8     -2301.810          40.800

  22068515.555                   115970839.760 8      2695.397          53.000
                  22068514.375    90366903.175 9      2100.309          44.800

  20897741.539                   109818374.453 8     -1629.975          54.300
                  20897742.320    85572755.991 9     -1270.109          49.500

 18  7  1  0  2 35.0000000  0 11G01G08G10G11G14G18G20G22G27G31G32
  23733313.320                   124719407.196 7      3311.279          47.300
                  23733315.680    97183965.597 8      2580.220          41.000

  23356439.625                   122738895.929 7     -1954.279          49.500
                  23356442.105    95640698.026 9     -1522.813          42.800

  21861794.953                   114884500.299 8     -1554.316          53.300
                  21861795.934    89520395.762 9     -1211.157          47.300

  23486373.164                   123421716.761 7      1873.060          49.300
                  23486371.125    96172764.387 8      1459.527          40.500

  20076226.445                   105501294.811 7       100.379          49.800
                  20076225.023    82208791.557 9        78.220          49.000

  21972128.211                   115464316.679 7      2267.621          51.500
                  21972127.551    89972198.660 9      1766.978          45.000

  23510298.508                   123547432.257 7     -2264.573          47.500
                  23510297.406    96270726.602 8     -1764.603          40.300

  23887104.039                   125527581.570 7      2748.152          48.300
                  23887101.520    97813692.026 8      2141.419          40.300

  23814981.359                   125148549.320 6     -2954.100          46.000
                  23814984.141    97518345.060 9     -2301.892          43.000

  22065951.813                   115957367.563 8      2693.831          53.300
                  22065950.691    90356405.371 9      2099.087          44.800

  20899293.219                   109826528.742 8     -1631.421          54.300
                  20899294.020    85579109.982 9     -1271.239          49.500

 18  7  1  0  2 40.0000000  0 11G01G08G10G11G14G18G20G22G27G31G32
  23730163.242                   124702853.576 6      3310.215          46.800
                  23730165.602    97171066.667 8      2579.393          40.500

  23358300.109                   122748672.688 7     -1956.171          49.800
                  23358302.590    95648316.280 9     -1524.287          43.300

