     2.11           OBSERVATION DATA    M (MIXED)           RINEX VERSION / TYPE
teqc  2019Feb25                         20240504 22:35:50UTCPGM / RUN BY / DATE
NWCS                                                        MARKER NAME
Newcastle                                                   MARKER NUMBER
CORSnet-NSW         NSW                                     OBSERVER / AGENCY
                    TRIMBLE NETR9                           REC # / TYPE / VERS
CR6200323013        ASH701945E_M    SCIS                    ANT # / TYPE
 -4721163.3790  2535155.7690 -3447435.5210                  APPROX POSITION XYZ
        0.0000        0.0000        0.0000                  ANTENNA: DELTA H/E/N
     1     1                                                WAVELENGTH FACT L1/2
    14    C1    P1    L1    D1    S1    C2    P2    L2    D2# / TYPES OF OBSERV
          S2    C5    L5    D5    S5                        # / TYPES OF OBSERV
     5.0000                                                 INTERVAL
     0                                                      RCV CLOCK OFFS APPL
    18                                                      LEAP SECONDS
teqc edited: all GLONASS satellites excluded                COMMENT
  2018     7     1     0     0    0.0000000     GPS         TIME OF FIRST OBS
Linux 2.6.32-573.12.1.x86_64|x86_64|gcc -static|Linux 64|=+ COMMENT
TPP                 Reference Data Shop 04-JUL-18 01:00     COMMENT
                                                            END OF HEADER
 18  7  1  0  0  0.0000000  0 11G01G08G10G11G14G18G20G22G27G31G32
  23829609.164                   125225459.25914                        37.100
                  23829620.680    97578310.94616                        24.100

  23297870.039                   122431098.38216                        43.300
                  23297879.465    95400896.95617                        30.300

  21817810.633                   114653362.30617                        50.400
                  21817819.887    89340330.68318                        40.600

  23540672.852                   123707089.12316                        43.900
                  23540679.039    96395141.79017                        28.100

  20079871.883                   105520501.87317                        47.800
                  20079878.418    82223763.09319                        43.900

  22038393.891                   115812503.95416                        45.000
                  22038402.230    90243576.09318                        36.800

  23445953.984                   123209301.01315                        41.100
                  23445961.066    96007282.45917                        26.100

  23966029.117                   125942290.56415                        39.500
                  23966033.719    98136910.42016                        22.600

  23727186.547                   124687163.41914                        37.300
                  23727197.715    97158865.85116                        22.600

  22147240.578                   116384532.14817                        50.000
                  22147247.266    90689284.30718                        37.400

  20852096.703                   109578444.68617                        51.800
                  20852105.770    85385889.50519                        45.700

 18  7  1  0  0  5.0000000  0 11G01G08G10G11G14G18G20G22G27G31G32
  23826433.125                   125208760.785 4      3339.282          37.500
                  23826442.375    97565299.169 6      2602.039          24.700

  23299675.352                   122440588.049 6     -1898.739          43.200
                  23299685.258    95408291.495 7     -1479.543          29.600

  21819261.977                   114660990.513 7     -1526.064          49.600
                  21819271.254    89346274.734 8     -1189.136          40.700

  23538829.719                   123697405.940 6      1935.770          43.400
                  23538836.484    96387596.438 7      1508.389          28.700

  20079701.305                   105519605.739 7       178.148          48.100
                  20079707.453    82223064.811 9       138.817          43.700

  22036180.859                   115800871.941 6      2325.612          46.400
                  22036188.816    90234512.188 8      1812.163          36.400

  23448085.438                   123220502.899 5     -2240.740          41.300
                  23448092.230    96016011.177 6     -1746.016          25.800

  23963413.914                   125928547.061 5      2748.656          40.200
                  23963418.578    98126201.217 6      2141.809          23.300

  23729990.695                   124701896.388 4     -2946.745          37.100
                  23730001.328    97170346.073 6     -2296.167          23.000

  22144628.328                   116370805.119 7      2744.715          50.500
                  22144635.496    90678587.921 8      2138.742          38.300

  20853601.836                   109586355.699 7     -1582.908          51.000
                  20853611.352    85392053.930 9     -1233.438          45.300

 18  7  1  0  0 10.0000000  0 11G01G08G10G11G14G18G20G22G27G31G32
  23823255.820                   125192066.817 4      3338.459          38.100
                  23823265.645    97552290.867 6      2601.388          25.300

  23301483.289                   122450087.215 6     -1900.573          43.600
                  23301493.219    95415693.439 7     -1480.963          30.200

  21820714.883                   114668623.552 7     -1526.983          49.800
                  21820724.148    89352222.560 8     -1189.857          40.800

  23536989.063                   123687733.006 6      1933.784          43.600
                  23536995.348    96380059.093 7      1506.842          27.700

  20079533.094                   105518722.623 7       175.603          49.100
                  20079539.586    82222376.666 9       136.832          43.500

  22033968.859                   115789249.498 6      2323.733          44.600
                  22033976.773    90225455.727 8      1810.697          36.000

  23450217.391                   123231708.778 5     -2241.460          40.800
                  23450225.074    96024743.025 6     -1746.582          25.000

  23960798.320                   125914803.627 5      2748.685          40.300
                  23960803.461    98115492.029 6      2141.859          22.600

  23732794.992                   124716630.843 3     -2946.979          36.900
                  23732804.902    97181827.450 6     -2296.340          22.900

  22142017.422                   116357086.282 7      2743.115          49.900
                  22142024.469    90667897.926 8      2137.494          38.200

  20855109.148                   109594275.008 7     -1584.509          51.000
                  20855118.617    85398224.815 9     -1234.679          45.500

 18  7  1  0  0 15.0000000  0 11G01G08G10G11G14G18G20G22G27G31G32
  23820079.680                   125175377.399 4      3337.496          37.400
                  23820090.191    97539286.132 6      2600.628          24.200

  23303292.508                   122459595.935 6     -1902.527          43.200
                  23303302.344    95423102.831 7     -1482.500          30.300

  21822168.273                   114676261.478 7     -1527.983          50.700
                  21822177.395    89358174.187 8     -1190.641          40.800

  23535150.789                   123678070.483 6      1931.667          43.400
                  23535156.414    96372529.856 7      1505.203          28.900

  20079367.484                   105517852.643 7       172.934          48.100
                  20079374.242    82221698.760 9       134.751          43.200

  22031758.813                   115777636.600 6      2321.795          45.500
                  22031766.512    90216406.728 8      1809.187          36.600

  23452350.961                   123242918.723 5     -2242.339          41.600
                  23452358.402    96033478.056 6     -1747.280          25.600

  23958183.320                   125901060.297 5      2748.654          40.200
                  23958187.809    98104782.964 6      2141.801          22.300

  23735598.227                   124731366.885 4     -2947.313          37.100
                  23735609.945    97193310.069 6     -2296.585          22.900

  22139408.602                   116343375.739 7      2741.436          50.500
                  22139415.422    90657214.394 8      2136.181          38.600

  20856618.055                   109602202.699 7     -1586.217          50.900
                  20856626.980    85404402.235 9     -1236.009          45.800

 18  7  1  0  0 20.0000000  0 11G01G08G10G11G14G18G20G22G27G31G32
  23816905.555                   125158692.534 4      3336.588          37.300
                  23816915.027    97526284.947 6      2599.930          24.700

  23305103.617                   122469114.180 6     -1904.431          44.200
                  23305113.570    95430519.637 7     -1483.976          31.200

  21823622.633                   114683904.271 7     -1528.957          50.000
                  21823631.969    89364129.604 8     -1191.393          40.700

  23533313.547                   123668418.263 6      1929.585          44.100
                  23533320.422    96365008.645 7      1503.569          28.600

  20079204.609                   105516995.695 7       170.325          49.000
                  20079211.129    82221031.006 9       132.724          43.700

  22029551.492                   115766033.370 6      2319.852          45.500
                  22029558.930    90207365.245 8      1807.677          36.400

  23454485.281                   123254132.685 5     -2243.139          41.300
                  23454492.211    96042216.195 7     -1747.884          26.300

  23955567.625                   125887317.104 5      2748.625          40.000
                  23955572.168    98094073.975 6      2141.786          24.000

  23738403.016                   124746104.483 4     -2947.656          37.300
                  23738413.473    97204793.932 6     -2296.879          22.800

  22136801.109                   116329673.470 7      2739.762          50.100
                  22136808.230    90646537.308 8      2134.879          37.900

  20858128.023                   109610138.688 7     -1587.885          50.500
                  20858136.996    85410586.125 9     -1237.313          45.600

 18  7  1  0  0 25.0000000  0 11G01G08G10G11G14G18G20G22G27G31G32
  23813731.109                   125142012.239 4      3335.670          37.300
                  23813741.215    97513287.309 6      2599.222          25.700

  23306916.781                   122478641.942 6     -1906.324          43.900
                  23306926.793    95437943.861 7     -1485.448          31.400

  21825077.695                   114691551.965 7     -1529.954          50.000
                  21825086.648    89370088.844 8     -1192.165          40.600

  23531479.281                   123658776.420 6      1927.520          43.900
                  23531485.535    96357495.513 7      1501.966          28.400

  20079044.219                   105516151.866 7       167.712          48.700
                  20079050.680    82220373.477 9       130.686          43.700

  22027344.961                   115754439.746 6      2317.935          45.300
                  22027352.313    90198331.247 8      1806.177          36.400

  23456619.820                   123265350.705 5     -2243.941          41.500
                  23456626.285    96050957.522 6     -1748.524          24.500

  23952952.930                   125873574.094 5      2748.579          40.200
                  23952957.309    98083365.137 6      2141.760          25.600

  23741207.023                   124760843.650 4     -2948.006          37.500
                  23741218.184    97216278.963 6     -2297.158          23.000

  22134195.375                   116315979.520 7      2738.109          50.500
                  22134202.492    90635866.701 8      2133.592          37.900

  20859639.992                   109618083.030 7     -1589.566          51.000
                  20859648.785    85416776.522 9     -1238.627          45.600

 18  7  1  0  0 30.0000000  0 11G01G08G10G11G14G18G20G22G27G31G32
  23810557.531                   125125336.484 4      3334.775          37.100
                  23810568.070    97500293.224 7      2598.515          26.200

  23308732.141                   122488179.105 6     -1908.178          44.300
                  23308741.871    95445375.410 7     -1486.891          30.800

  21826534.570                   114699204.507 7     -1530.882          50.200
                  21826543.445    89376051.856 8     -1192.891          40.500

  23529646.250                   123649144.955 6      1925.474          43.800
                  23529653.563    96349990.478 7      1500.377          30.000

  20078885.766                   105515321.110 7       165.119          49.000
                  20078892.758    82219726.139 9       128.664          43.600

  22025140.641                   115742855.625 6      2316.074          45.500
                  22025148.199    90189304.664 8      1804.734          35.700

  23458754.844                   123276572.769 5     -2244.733          41.400
                  23458762.355    96059701.968 6     -1749.150          25.400

  23950337.570                   125859831.164 5      2748.600          40.400
                  23950342.414    98072656.373 6      2141.753          24.400

  23744012.938                   124775584.248 3     -2948.224          36.700
                  23744023.520    97227765.131 6     -2297.318          22.500

  22131590.586                   116302293.836 7      2736.488          50.300
                  22131598.023    90625202.538 8      2132.329          38.600

  20861153.273                   109626035.632 8     -1591.163          52.100
                  20861161.992    85422973.358 9     -1239.868          45.300

 18  7  1  0  0 35.0000000  0 11G01G08G10G11G14G18G20G22G27G31G32
  23807383.805                   125108665.356 3      3333.831          36.600
                  23807395.535    97487302.741 6      2597.771          24.600

  23310548.266                   122497725.859 6     -1910.135          43.700
                  23310558.359    95452814.430 7     -1488.410          30.800

  21827991.352                   114706861.971 7     -1531.900          50.200
                  21828000.309    89382018.715 8     -1193.689          40.400

  23527815.766                   123639523.866 6      1923.363          43.600
                  23527822.398    96342493.527 7      1498.727          28.300

  20078730.445                   105514503.434 7       162.476          48.300
                  20078736.781    82219088.990 9       126.600          43.800

  22022937.492                   115731281.256 6      2314.086          45.600
                  22022945.582    90180285.676 8      1803.185          36.100

  23460891.469                   123287798.947 5     -2245.605          41.200
                  23460898.465    96068449.626 6     -1749.814          25.600

  23947722.141                   125846088.487 5      2748.504          41.300
                  23947727.992    98061947.802 6      2141.695          24.500

  23746818.266                   124790326.407 3     -2948.546          36.900
                  23746828.438    97239252.516 6     -2297.563          22.600

  22128988.258                   116288616.524 7      2734.778          50.500
                  22128995.484    90614544.897 8      2130.997          39.200

  20862668.406                   109633996.619 7     -1592.881          51.600
                  20862676.949    85429176.721 9     -1241.207          46.000

 18  7  1  0  0 40.0000000  0 11G01G08G10G11G14G18G20G22G27G31G32
  23804213.664                   125091998.773 4      3332.928          37.400
                  23804223.645    97474315.795 6      2597.087          23.900

  23312366.750                   122507281.998 6     -1912.006          43.000
                  23312376.738    95460260.774 7     -1489.867          30.900

  21829449.281                   114714524.315 7     -1532.889          49.600
                  21829458.457    89387989.367 8     -1194.461          40.900

  23525986.828                   123629913.135 6      1921.288          43.400
                  23525993.055    96335004.646 7      1497.111          29.600

  20078577.258                   105513698.814 7       159.860          48.800
                  20078584.063    82218462.013 9       124.567          44.100

  22020737.008                   115719716.478 6      2312.157          45.400
                  22020744.859    90171274.164 8      1801.680          36.200

  23463028.016                   123299029.118 5     -2246.380          40.900
                  23463035.441    96077200.410 6     -1750.447          25.800

  23945107.555                   125832345.883 5      2748.483          40.800
                  23945112.539    98051239.279 6      2141.684          24.200

  23749623.438                   124805070.059 3     -2948.866          36.600
                  23749634.094    97250741.081 6     -2297.826          22.800

  22126386.922                   116274947.525 7      2733.105          50.600
                  22126394.223    90603893.738 8      2129.691          39.200

  20864184.445                   109641965.850 7     -1594.536          51.300
                  20864193.527    85435386.511 9     -1242.496          45.500

 18  7  1  0  0 45.0000000  0 11G01G08G10G11G14G18G20G22G27G31G32
  23801042.648                   125075336.916 3      3331.956          37.000
                  23801053.027    97461332.531 6      2596.321          24.000

  23314187.281                   122516847.620 6     -1913.944          42.600
                  23314197.121    95467714.511 7     -1491.385          31.100

  21830908.578                   114722191.613 7     -1533.894          50.300
                  21830917.395    89393963.882 8     -1195.244          40.300

  23524159.828                   123620312.905 6      1919.168          44.300
                  23524166.172    96327523.959 7      1495.452          28.900

  20078426.711                   105512907.351 7       157.219          48.900
                  20078432.832    82217845.283 9       122.514          43.400

  22018538.461                   115708161.455 6      2310.179          46.500
                  22018545.836    90162270.250 8      1800.140          35.900

  23465166.344                   123310263.431 5     -2247.212          41.100
                  23465173.027    96085954.418 6     -1751.077          25.400

  23942491.578                   125818603.509 5      2748.437          40.100
                  23942498.180    98040530.933 6      2141.631          22.900

  23752429.063                   124819815.274 3     -2949.191          37.000
                  23752440.488    97262230.862 6     -2298.084          22.800

  22123787.836                   116261287.023 7      2731.405          50.800
                  22123794.707    90593249.196 8      2128.367          38.400

  20865702.539                   109649943.475 7     -1596.217          50.700
                  20865711.836    85441602.844 9     -1243.804          45.700

 18  7  1  0  0 50.0000000  0 11G01G08G10G11G14G18G20G22G27G31G32
  23797873.055                   125058679.669 3      3331.064          36.700
                  23797883.289    97448352.845 6      2595.642          25.500

  23316009.234                   122526422.679 6     -1915.767          42.600
                  23316019.063    95475175.592 7     -1492.809          31.100

  21832368.477                   114729863.799 7     -1534.839          50.500
                  21832377.414    89399942.203 8     -1195.980          40.100

  23522334.609                   123610723.041 6      1917.117          44.500
                  23522341.371    96320051.328 7      1493.856          28.900

  20078278.844                   105512128.954 7       154.617          48.800
                  20078284.984    82217238.745 9       120.478          43.800

  22016341.531                   115696616.117 6      2308.281          46.100
                  22016349.066    90153273.884 8      1798.657          36.300

  23467304.992                   123321501.807 5     -2248.007          41.100
                  23467311.820    96094711.591 6     -1751.686          25.700

  23939876.367                   125804861.252 5      2748.432          39.400
                  23939883.031    98029822.693 6      2141.626          24.000

  23755235.992                   124834561.945 4     -2949.472          37.900
                  23755246.246    97273721.741 6     -2298.285          22.800

  22121189.766                   116247634.854 7      2729.752          50.900
                  22121196.832    90582611.146 8      2127.080          38.400

  20867222.359                   109657929.370 7     -1597.871          51.100
                  20867231.281    85447825.614 9     -1245.095          45.100

 18  7  1  0  0 55.0000000  0 11G01G08G10G11G14G18G20G22G27G31G32
  23794704.031                   125042027.101 4      3330.162          37.500
                  23794713.656    97435376.810 6      2594.948          24.100

  23317833.211                   122536007.169 6     -1917.635          43.200
                  23317842.914    95482644.027 7     -1494.268          30.700

  21833829.508                   114737540.915 7     -1535.801          50.500
                  21833838.633    89405924.369 8     -1196.726          40.700

  23520511.391                   123601143.642 6      1915.048          44.300
                  23520518.605    96312586.865 7      1492.245          29.200

  20078132.688                   105511363.627 7       152.030          49.300
                  20078139.578    82216642.387 9       118.464          43.600

  22014146.406                   115685080.393 6      2306.371          46.100
                  22014153.590    90144285.009 8      1797.167          36.100

  23469444.898                   123332744.292 6     -2248.802          42.400
                  23469451.109    96103471.953 6     -1752.307          25.300

  23937261.633                   125791119.187 5      2748.404          40.000
                  23937267.781    98019114.595 6      2141.620          25.100

  23758041.852                   124849310.068 4     -2949.719          37.300
                  23758052.629    97285213.790 6     -2298.483          22.600

  22118593.211                   116233991.081 7      2728.098          50.800
                  22118600.590    90571979.646 8      2125.790          38.500

  20868743.625                   109665923.565 7     -1599.482          51.300
                  20868752.773    85454054.860 9     -1246.349          45.600

 18  7  1  0  1  0.0000000  0 11G01G08G10G11G14G18G20G22G27G31G32
  23791536.359                   125025379.052 3      3329.171          36.900
                  23791545.816    97422404.316 6      2594.162          25.700

  23319659.195                   122545600.989 6     -1919.567          42.400
                  23319668.582    95490119.728 7     -1495.771          30.800

  21835291.156                   114745222.806 7     -1536.810          50.100
                  21835299.793    89411910.257 8     -1197.509          39.800

  23518691.078                   123591574.568 6      1912.937          44.100
                  23518697.461    96305130.440 7      1490.596          29.200

  20077989.625                   105510611.273 7       149.382          48.800
                  20077995.953    82216056.136 9       116.402          43.400

  22011952.836                   115673554.306 6      2304.425          47.000
                  22011960.301    90135303.644 8      1795.654          35.900

  23471584.203                   123343990.688 5     -2249.632          41.800
                  23471591.133    96112235.379 7     -1752.955          26.500

  23934647.188                   125777377.154 5      2748.372          40.000
                  23934652.137    98008406.509 6      2141.591          21.700

  23760849.234                   124864059.536 3     -2950.038          36.800
                  23760859.691    97296706.891 6     -2298.733          22.800

  22115998.445                   116220355.637 7      2726.381          50.600
                  22116005.625    90561354.629 8      2124.450          38.700

  20870266.266                   109673925.922 7     -1601.169          51.900
                  20870275.043    85460290.461 9     -1247.667          45.700

 18  7  1  0  1  5.0000000  0 11G01G08G10G11G14G18G20G22G27G31G32
  23788369.086                   125008735.746 4      3328.332          37.400
                  23788378.703    97409435.492 6      2593.512          22.900

  23321486.430                   122555204.328 6     -1921.371          42.600
                  23321495.828    95497602.851 7     -1497.177          30.500

  21836753.820                   114752909.703 7     -1537.726          50.200
                  21836763.102    89417900.041 8     -1198.228          40.200

  23516871.914                   123582015.998 6      1910.921          43.700
                  23516878.676    96297682.198 7      1489.030          27.400

  20077849.211                   105509872.072 7       146.830          48.600
                  20077855.797    82215480.137 9       114.411          44.100

  22009761.953                   115662038.033 6      2302.531          46.000
                  22009769.305    90126329.920 8      1794.183          36.700

  23473725.656                   123355241.235 6     -2250.406          42.100
                  23473732.352    96121002.035 7     -1753.570          26.800

  23932032.211                   125763635.390 5      2748.393          40.300
                  23932036.781    97997698.645 6      2141.607          22.300

  23763655.984                   124878810.518 3     -2950.245          36.900
                  23763667.027    97308201.136 6     -2298.879          24.700

  22113405.281                   116206728.695 7      2724.750          51.000
                  22113412.258    90550736.239 8      2123.181          39.000

  20871790.945                   109681936.617 7     -1602.754          51.300
                  20871799.621    85466532.555 9     -1248.898          45.700

 18  7  1  0  1 10.0000000  0 11G01G08G10G11G14G18G20G22G27G31G32
  23785202.578                   124992097.078 3      3327.437          36.800
                  23785212.617    97396470.300 6      2592.811          22.600

  23323315.805                   122564816.918 6     -1923.215          42.500
                  23323325.191    95505093.181 7     -1498.608          30.200

  21838217.414                   114760601.418 7     -1538.683          50.100
                  21838226.512    89423893.583 8     -1198.968          40.200

  23515055.391                   123572467.833 6      1908.833          43.800
                  23515061.383    96290242.076 7      1487.412          28.300

  20077710.633                   105509145.838 7       144.247          49.900
                  20077717.461    82214914.239 9       112.402          43.400

  22007572.313                   115650531.380 6      2300.592          45.700
                  22007579.148    90117363.703 8      1792.663          37.100

  23475867.133                   123366495.776 5     -2251.160          42.000
                  23475874.078    96129771.805 7     -1754.166          26.300

  23929417.242                   125749893.700 5      2748.374          40.200
                  23929421.266    97986990.843 6      2141.574          25.300

  23766464.086                   124893562.838 4     -2950.529          38.300
                  23766473.832    97319696.461 6     -2299.110          25.500

  22110813.914                   116193110.086 7      2723.082          50.900
                  22110820.852    90540124.341 8      2121.885          38.700

  20873316.813                   109689955.511 7     -1604.390          51.800
                  20873325.977    85472781.049 9     -1250.176          45.700

 18  7  1  0  1 15.0000000  0 11G01G08G10G11G14G18G20G22G27G31G32
  23782037.125                   124975463.098 3      3326.468          36.700
                  23782047.313    97383508.775 6      2592.049          25.100

  23325146.586                   122574438.990 6     -1925.163          42.100
                  23325155.680    95512590.894 7     -1500.125          29.900

  21839682.109                   114768298.102 7     -1539.733          50.300
                  21839691.559    89429891.001 8     -1199.791          40.300

  23513240.266                   123562930.147 6      1906.698          43.400
                  23513246.840    96282810.114 7      1485.740          28.500

  20077575.203                   105508432.689 7       141.585          49.500
                  20077581.539    82214358.539 9       110.331          43.600

  22005384.055                   115639034.522 6      2298.584          46.400
                  22005391.480    90108405.111 8      1791.103          36.700

  23478009.219                   123377754.406 5     -2252.042          42.000
                  23478016.395    96138544.756 6     -1754.837          25.800

  23926801.211                   125736152.185 5      2748.305          40.500
                  23926806.750    97976283.162 6      2141.539          24.100

  23769271.539                   124908316.592 4     -2950.850          37.500
                  23769281.746    97331192.887 6     -2299.377          22.900

  22108223.797                   116179499.972 7      2721.340          51.000
                  22108231.035    90529519.070 8      2120.525          39.100

  20874844.266                   109697982.670 8     -1606.083          52.100
                  20874853.035    85479035.971 9     -1251.486          45.800

 18  7  1  0  1 20.0000000  0 11G01G08G10G11G14G18G20G22G27G31G32
  23778872.500                   124958833.935 3      3325.431          36.800
                  23778883.504    97370550.979 6      2591.236          24.200

  23326979.328                   122584070.486 6     -1927.087          42.500
                  23326989.164    95520095.955 7     -1501.628          29.100

  21841148.172                   114775999.753 7     -1540.763          49.900
                  21841156.957    89435892.281 8     -1200.594          40.600

  23511426.930                   123553403.011 6      1904.541          43.500
                  23511433.637    96275386.384 7      1484.049          28.900

  20077442.375                   105507732.648 7       138.927          48.700
                  20077448.824    82213813.053 9       108.257          43.400

  22003198.406                   115627547.452 6      2296.598          45.400
                  22003205.742    90099454.140 8      1789.561          36.500

  23480152.875                   123389017.180 5     -2252.902          41.500
                  23480160.129    96147320.942 6     -1755.511          25.800

  23924186.438                   125722410.850 5      2748.215          40.300
                  23924192.461    97965575.630 6      2141.459          23.400

  23772078.664                   124923071.848 4     -2951.208          38.000
                  23772089.297    97342690.460 6     -2299.624          22.800

  22105635.602                   116165898.383 7      2719.602          51.400
                  22105642.668    90518920.435 8      2119.171          39.300

  20876373.461                   109706018.146 7     -1607.788          50.800
                  20876382.445    85485297.382 9     -1252.823          45.800

 18  7  1  0  1 25.0000000  0 11G01G08G10G11G14G18G20G22G27G31G32
  23775708.742                   124942209.399 3      3324.516          36.800
                  23775719.965    97357596.810 6      2590.535          24.700

  23328814.273                   122593711.196 5     -1928.902          41.200
                  23328823.766    95527608.184 7     -1503.027          29.400

  21842614.461                   114783706.219 7     -1541.693          49.900
                  21842623.105    89441897.320 8     -1201.321          39.900

  23509615.703                   123543886.229 6      1902.519          43.700
                  23509622.945    96267970.692 7      1482.488          29.000

  20077311.313                   105507045.555 7       136.385          48.600
                  20077317.969    82213277.654 9       106.278          43.400

  22001014.430                   115616070.090 6      2294.683          46.900
                  22001021.512    90090510.745 8      1788.063          37.300

  23482296.891                   123400283.918 5     -2253.679          41.300
                  23482304.031    96156100.212 7     -1756.108          27.200

  23921572.563                   125708669.620 5      2748.240          39.700
                  23921578.059    97954868.208 6      2141.462          23.200

  23774887.047                   124937828.304 4     -2951.397          37.400
                  23774897.574    97354189.015 6     -2299.796          24.100

  22103048.805                   116152305.121 7      2717.979          51.000
                  22103055.973    90508328.291 8      2117.900          39.000

  20877904.008                   109714061.748 7     -1609.381          51.500
                  20877913.121    85491565.124 9     -1254.064          45.600

 18  7  1  0  1 30.0000000  0 11G01G08G10G11G14G18G20G22G27G31G32
  23772546.328                   124925589.548 3      3323.581          36.900
                  23772557.305    97344646.289 6      2589.791          24.300

  23330650.016                   122603361.300 5     -1930.802          41.500
                  23330659.918    95535127.752 7     -1504.517          30.200

  21844081.836                   114791417.605 7     -1542.702          50.000
                  21844090.879    89447906.194 8     -1202.109          40.700

  23507807.273                   123534379.923 6      1900.391          44.100
                  23507813.875    96260563.201 7      1480.815          28.200

  20077183.156                   105506371.513 7       133.730          49.300
                  20077189.652    82212752.430 9       104.206          44.100

  21998832.211                   115604602.504 7      2292.691          47.200
                  21998839.074    90081574.959 8      1786.514          36.700

  23484441.570                   123411554.719 5     -2254.529          41.000
                  23484448.852    96164882.653 7     -1756.782          27.000

  23918956.813                   125694928.522 5      2748.162          40.900
                  23918963.289    97944160.854 6      2141.422          24.100

  23777695.078                   124952586.141 4     -2951.691          37.600
                  23777705.844    97365688.602 6     -2300.023          23.300

  22100464.039                   116138720.346 7      2716.242          51.300
                  22100470.988    90497742.758 8      2116.553          39.200

  20879436.406                   109722113.568 8     -1611.054          52.300
                  20879445.102    85497839.279 9     -1255.367          45.300

 18  7  1  0  1 35.0000000  0 11G01G08G10G11G14G18G20G22G27G31G32
  23769384.656                   124908974.453 3      3322.658          36.900
                  23769395.430    97331699.464 6      2589.083          24.400

  23332487.836                   122613020.797 5     -1932.619          41.600
                  23332498.039    95542654.625 7     -1505.936          28.100

  21845549.875                   114799133.888 7     -1543.631          49.900
                  21845559.168    89453918.872 8     -1202.828          39.900

  23506000.352                   123524884.066 6      1898.362          43.700
                  23506006.664    96253163.829 7      1479.239          29.500

  20077056.781                   105505710.486 7       131.184          48.600
                  20077063.402    82212237.344 9       102.223          43.900

  21996651.719                   115593144.653 7      2290.827          47.200
                  21996658.957    90072646.769 8      1785.058          36.900

  23486586.836                   123422829.575 5     -2255.269          41.400
                  23486594.449    96173668.254 7     -1757.355          27.000

  23916342.594                   125681187.617 5      2748.191          40.900
                  23916348.352    97933453.658 6      2141.452          24.700

  23780503.625                   124967345.309 4     -2951.899          38.000
                  23780514.977    97377189.242 6     -2300.175          24.700

  22097880.141                   116125144.053 7      2714.596          51.700
                  22097887.055    90487163.839 8      2115.268          39.300

  20880970.180                   109730173.559 7     -1612.633          51.300
                  20880979.016    85504119.787 9     -1256.601          45.500

 18  7  1  0  1 40.0000000  0 11G01G08G10G11G14G18G20G22G27G31G32
  23766223.938                   124892364.029 4      3321.776          37.300
                  23766234.301    97318756.288 6      2588.387          23.400

  23334327.852                   122622689.476 5     -1934.443          40.500
                  23334337.992    95550188.664 7     -1507.365          28.600

  21847019.211                   114806855.039 7     -1544.576          50.500
                  21847028.508    89459935.347 8     -1203.567          40.300

  23504194.852                   123515398.670 6      1896.284          43.900
                  23504201.613    96245772.600 7      1477.627          28.000

  20076933.773                   105505062.451 7       128.617          49.100
                  20076940.688    82211732.384 9       100.219          43.500

  21994472.938                   115581696.533 7      2288.892          47.400
                  21994480.363    90063726.154 8      1783.551          36.900

  23488733.492                   123434108.477 5     -2256.072          41.500
                  23488740.961    96182457.012 7     -1757.984          26.100

  23913728.102                   125667446.877 5      2748.162          41.200
                  23913733.348    97922746.589 6      2141.441          24.900

  23783313.055                   124982105.770 4     -2952.159          38.800
                  23783323.414    97388690.907 6     -2300.364          24.000

  22095298.234                   116111576.213 7      2712.936          51.400
                  22095305.387    90476591.504 8      2113.971          39.400

  20882505.516                   109738241.737 7     -1614.245          51.700
                  20882514.574    85510406.672 9     -1257.852          45.400

 18  7  1  0  1 45.0000000  0 11G01G08G10G11G14G18G20G22G27G31G32
  23763063.844                   124875758.506 4      3320.690          37.200
                  23763074.215    97305816.917 7      2587.546          26.200

  23336169.547                   122632367.486 5     -1936.383          40.900
                  23336179.805    95557729.951 7     -1508.870          28.600

  21848489.430                   114814581.193 7     -1545.653          50.300
                  21848498.625    89465955.732 8     -1204.409          40.300

  23502392.039                   123505923.845 6      1894.099          43.800
                  23502398.539    96238389.621 7      1475.918          29.200

  20076812.742                   105504427.492 7       125.935          48.700
                  20076819.250    82211237.612 9        98.128          44.100

  21992296.578                   115570258.242 6      2286.879          46.600
                  21992303.824    90054813.203 8      1781.979          36.700

  23490880.227                   123445391.484 5     -2256.958          41.800
                  23490887.695    96191248.963 6     -1758.669          25.800

  23911113.469                   125653706.402 5      2748.056          40.700
                  23911118.277    97912039.732 6      2141.337          23.900

  23786122.375                   124996867.619 4     -2952.492          38.900
                  23786132.418    97400193.643 6     -2300.665          23.200

  22092718.063                   116098016.988 7      2711.144          50.600
                  22092725.059    90466025.880 8      2112.574          39.500

  20884042.305                   109746318.169 7     -1615.958          51.500
                  20884051.438    85516699.998 9     -1259.188          45.500

 18  7  1  0  1 50.0000000  0 11G01G08G10G11G14G18G20G22G27G31G32
  23759904.047                   124859157.683 3      3319.776          36.700
                  23759915.012    97292881.201 6      2586.841          25.600

  23338012.375                   122642054.780 5     -1938.212          41.300
                  23338023.516    95565278.473 7     -1510.283          28.800

  21849960.906                   114822312.206 7     -1546.590          50.000
                  21849969.875    89471979.888 8     -1205.136          40.000

  23500590.906                   123496459.480 6      1892.019          44.300
                  23500597.445    96231014.791 7      1474.288          28.000

  20076694.711                   105503805.556 7       123.338          48.100
                  20076701.184    82210752.979 9        96.108          43.500

  21990122.156                   115558829.752 7      2284.921          47.900
                  21990129.055    90045907.882 8      1780.457          36.300

  23493028.867                   123456678.555 5     -2257.746          41.200
                  23493035.816    96200044.064 7     -1759.278          26.300

  23908497.813                   125639966.055 5      2748.055          40.300
                  23908503.473    97901332.963 6      2141.347          24.800

  23788930.891                   125011630.724 4     -2952.722          39.000
                  23788941.813    97411697.355 6     -2300.816          24.800

  22090139.914                   116084466.263 7      2709.457          51.000
                  22090146.703    90455466.877 8      2111.265          39.000

  20885580.414                   109754402.730 7     -1617.572          52.000
                  20885589.758    85522999.657 9     -1260.450          45.700

 18  7  1  0  1 55.0000000  0 11G01G08G10G11G14G18G20G22G27G31G32
  23756746.750                   124842561.723 3      3318.819          36.300
                  23756757.270    97279949.318 6      2586.082          23.900

  23339857.430                   122651751.294 5     -1940.041          41.400
                  23339868.469    95572834.202 7     -1511.714          28.300

  21851433.055                   114830048.251 7     -1547.596          49.400
                  21851442.156    89478007.976 8     -1205.918          40.200

  23498791.867                   123487005.748 6      1889.912          43.500
                  23498798.441    96223648.252 7      1472.647          27.900

  20076578.602                   105503196.737 7       120.733          49.100
                  20076585.043    82210278.576 9        94.079          43.500

  21987949.195                   115547411.172 7      2282.945          47.900
                  21987956.461    90037010.281 8      1778.919          36.000

  23495176.961                   123467969.783 5     -2258.572          40.900
                  23495183.953    96208842.420 7     -1759.927          27.400

  23905883.109                   125626226.031 5      2747.996          40.600
                  23905888.570    97890626.447 6      2141.309          23.500

  23791741.313                   125026395.195 4     -2953.004          37.700
                  23791751.270    97423202.144 6     -2301.049          24.300

  22087562.719                   116070924.162 7      2707.735          51.700
                  22087569.625    90444914.604 8      2109.914          39.300

  20887120.898                   109762495.578 7     -1619.217          51.600
                  20887129.563    85529305.768 9     -1261.726          45.800

 18  7  1  0  2  0.0000000  0 11G01G08G10G11G14G18G20G22G27G31G32
  23753590.211                   124825970.521 4      3317.881          37.800
                  23753600.309    97267021.117 6      2585.347          24.800

  23341705.031                   122661457.039 5     -1941.880          40.600
                  23341715.500    95580397.108 7     -1513.158          27.400

  21852906.352                   114837789.122 7     -1548.550          49.900
                  21852915.195    89484039.815 8     -1206.661          40.300

  23496994.844                   123477562.455 6      1887.830          43.500
                  23497001.301    96216289.843 7      1471.030          27.900

  20076465.492                   105502600.819 7       118.162          48.600
                  20076471.781    82209814.229 9        92.074          43.300

  21985778.008                   115536002.365 7      2281.010          47.800
                  21985785.008    90028120.298 8      1777.412          37.500

  23497326.469                   123479264.999 5     -2259.357          40.500
                  23497333.984    96217643.884 6     -1760.536          24.700

  23903269.148                   125612486.102 5      2747.993          39.300
                  23903274.352    97879920.027 6      2141.262          24.900

  23794550.813                   125041160.852 4     -2953.204          38.300
                  23794560.668    97434707.835 6     -2301.188          23.200

  22084987.063                   116057390.509 7      2706.067          51.500
                  22084993.883    90434368.903 8      2108.626          39.700

  20888662.375                   109770596.501 7     -1620.818          51.400
                  20888671.039    85535618.179 9     -1262.978          45.400

 18  7  1  0  2  5.0000000  0 11G01G08G10G11G14G18G20G22G27G31G32
  23750434.305                   124809384.163 4      3316.920          37.600
                  23750444.402    97254096.670 7      2584.620          26.300

  23343553.070                   122671172.068 5     -1943.705          39.700
                  23343564.184    95587967.255 7     -1514.574          27.200

  21854379.844                   114845534.923 7     -1549.519          50.400
                  21854388.340    89490075.509 8     -1207.422          40.500

  23495199.563                   123468129.699 6      1885.737          43.300
                  23495206.348    96208939.640 7      1469.401          29.300

  20076354.359                   105502017.921 7       115.572          48.800
                  20076360.820    82209360.022 9        90.051          43.700

  21983609.211                   115524603.404 7      2279.054          47.600
                  21983615.770    90019237.997 8      1775.894          36.900

  23499476.586                   123490564.284 5     -2260.143          40.400
                  23499484.207    96226448.513 6     -1761.147          25.600

  23900654.125                   125598746.405 5      2747.957          39.200
                  23900659.926    97869213.765 6      2141.243          23.900

  23797360.711                   125055927.797 4     -2953.413          38.100
                  23797370.848    97446214.528 6     -2301.342          22.900

  22082413.523                   116043865.439 7      2704.372          51.400
                  22082420.199    90423829.895 8      2107.306          39.200

  20890205.148                   109778705.577 7     -1622.424          51.500
                  20890214.336    85541936.937 9     -1264.228          45.700

 18  7  1  0  2 10.0000000  0 11G01G08G10G11G14G18G20G22G27G31G32
  23747277.805                   124792802.532 4      3315.948          37.300
                  23747288.441    97241175.916 6      2583.874          24.600

  23345404.258                   122680896.277 5     -1945.550          39.500
                  23345414.770    95595544.545 7     -1516.017          26.800

  21855855.250                   114853285.626 7     -1550.511          50.200
                  21855863.688    89496115.010 8     -1208.192          40.200

  23493406.813                   123458707.454 6      1883.620          42.800
                  23493413.352    96201597.635 7      1467.753          28.500

  20076246.172                   105501447.973 7       112.966          48.700
                  20076252.617    82208915.907 9        88.023          43.700

  21981441.516                   115513214.226 7      2277.081          47.200
                  21981448.219    90010363.313 8      1774.348          36.800

  23501627.617                   123501867.651 5     -2260.981          40.800
                  23501635.293    96235256.333 7     -1761.808          26.500

  23898039.695                   125585006.827 4      2747.976          38.300
                  23898045.094    97858507.594 6      2141.305          24.700

  23800171.570                   125070695.953 4     -2953.713          38.600
                  23800181.512    97457722.195 6     -2301.596          24.100

  22079841.406                   116030348.911 7      2702.637          51.300
                  22079848.539    90413297.545 8      2105.951          39.600

  20891750.070                   109786822.762 7     -1624.056          50.600
                  20891758.980    85548262.011 9     -1265.494          45.800

 18  7  1  0  2 15.0000000  0 11G01G08G10G11G14G18G20G22G27G31G32
  23744123.664                   124776225.800 4      3314.955          37.400
                  23744134.355    97228258.997 6      2583.072          24.800

  23347255.500                   122690629.777 5     -1947.432          39.900
                  23347266.824    95603129.078 7     -1517.479          26.500

  21857330.734                   114861041.256 7     -1551.499          50.200
                  21857339.766    89502158.353 8     -1208.958          40.300

  23491616.289                   123449295.724 6      1881.521          43.900
                  23491622.344    96194263.814 7      1466.128          27.900

  20076139.930                   105500891.002 7       110.378          49.200
                  20076146.520    82208481.897 9        86.014          42.900

  21979276.570                   115501834.894 6      2275.082          46.000
                  21979283.371    90001496.298 8      1772.792          37.300

  23503779.875                   123513175.087 5     -2261.814          40.400
                  23503787.078    96244067.314 6     -1762.446          26.000

  23895425.898                   125571267.513 4      2747.839          37.700
                  23895431.125    97847801.670 6      2141.181          25.200

  23802981.484                   125085465.304 5     -2953.970          39.800
                  23802991.379    97469230.771 6     -2301.790          24.700

  22077270.977                   116016840.964 7      2700.918          51.300
                  22077278.031    90402771.875 8      2104.617          39.500

  20893296.273                   109794948.102 8     -1625.705          52.100
                  20893305.027    85554593.442 9     -1266.781          46.000

 18  7  1  0  2 20.0000000  0 11G01G08G10G11G14G18G20G22G27G31G32
  23740969.727                   124759653.843 3      3314.000          36.700
                  23740980.289    97215345.784 6      2582.337          25.300

  23349109.344                   122700372.321 4     -1949.250          38.500
                  23349120.621    95610720.665 7     -1518.882          27.300

  21858807.539                   114868801.757 7     -1552.504          50.300
                  21858816.844    89508205.496 8     -1209.743          40.100

  23489826.477                   123439894.455 6      1879.416          44.100
                  23489833.941    96186938.152 7      1464.474          28.400

  20076036.594                   105500346.956 7       107.773          48.700
                  20076043.156    82208057.967 9        83.976          43.600

  21977112.836                   115490465.384 7      2273.111          47.400
                  21977119.375    89992636.944 8      1771.252          37.800

  23505931.898                   123524486.544 5     -2262.603          39.900
                  23505938.957    96252881.431 7     -1763.078          27.300

  23892811.734                   125557528.344 4      2747.764          38.000
                  23892816.484    97837095.828 6      2141.106          24.700

  23805792.641                   125100235.837 4     -2954.211          38.500
                  23805802.793    97480740.272 6     -2301.989          25.300

  22074702.164                   116003341.567 7      2699.196          51.400
                  22074709.219    90392252.878 8      2103.267          39.000

  20894844.188                   109803081.502 7     -1627.318          51.900
                  20894852.910    85560931.161 9     -1268.045          45.500

 18  7  1  0  2 25.0000000  0 11G01G08G10G11G14G18G20G22G27G31G32
  23737817.039                   124743086.716 4      3313.025          38.200
                  23737827.723    97202436.341 6      2581.574          23.800

  23350965.516                   122710124.060 5     -1951.101          39.400
                  23350975.770    95618319.439 7     -1520.346          27.400

  21860285.063                   114876567.186 7     -1553.491          50.200
                  21860294.453    89514256.482 8     -1210.518          39.900

  23488039.852                   123430503.757 6      1877.297          43.900
                  23488047.016    96179620.730 7      1462.816          29.400

  20075935.633                   105499815.882 7       105.169          48.600
                  20075941.996    82207644.146 9        81.947          43.500

  21974951.063                   115479105.798 7      2271.119          47.200
                  21974958.266    89983785.315 8      1769.702          36.500

  23508084.523                   123535802.067 5     -2263.442          39.400
                  23508092.105    96261698.698 7     -1763.701          26.400

  23890196.578                   125543789.363 4      2747.768          38.200
                  23890201.730    97826390.113 6      2141.102          24.500

  23808603.234                   125115007.513 5     -2954.420          39.600
                  23808614.055    97492250.677 6     -2302.156          25.500

  22072134.875                   115989850.790 7      2697.453          51.200
                  22072141.934    90381740.590 8      2101.913          39.200

  20896393.313                   109811223.010 8     -1628.968          52.300
                  20896402.309    85567275.190 9     -1269.322          45.600

 18  7  1  0  2 30.0000000  0 11G01G08G10G11G14G18G20G22G27G31G32
  23734666.336                   124726524.445 4      3312.164          37.300
                  23734676.133    97189530.691 6      2580.905          25.300

  23352822.898                   122719884.994 4     -1952.859          38.900
                  23352833.035    95625925.346 7     -1521.696          27.200

  21861763.969                   114884337.513 7     -1554.396          50.000
                  21861772.957    89520311.276 8     -1211.217          39.900

  23486254.859                   123421123.594 6      1875.254          43.200
                  23486262.004    96172311.505 7      1461.238          28.700

  20075836.898                   105499297.804 7       102.623          48.200
                  20075843.012    82207240.443 9        79.969          43.700

  21972791.570                   115467756.071 7      2269.197          47.200
                  21972798.184    89974941.371 8      1768.202          36.400

  23510239.172                   123547121.673 5     -2264.188          39.200
                  23510245.984    96270519.178 6     -1764.300          25.200

  23887581.648                   125530050.589 4      2747.815          38.300
                  23887586.914    97815684.554 6      2141.163          24.200

  23811414.297                   125129780.394 5     -2954.618          39.600
                  23811425.590    97503762.010 6     -2302.296          25.100

  22069569.008                   115976368.635 7      2695.794          51.400
                  22069576.184    90371235.022 8      2100.615          38.900

  20897944.234                   109819372.619 7     -1630.525          51.900
                  20897952.809    85573625.534 9     -1270.538          45.600

 18  7  1  0  2 35.0000000  0 11G01G08G10G11G14G18G20G22G27G31G32
  23731515.031                   124709967.126 4      3311.085          37.700
                  23731525.102    97176628.888 6      2580.068          24.400

  23354681.805                   122729655.111 5     -1954.756          40.500
                  23354692.910    95633538.437 6     -1523.190          25.300

  21863243.688                   114892112.830 7     -1555.470          49.100
                  21863252.297    89526369.965 8     -1212.055          39.600

  23484472.320                   123411754.060 6      1873.044          43.800
                  23484478.770    96165010.577 7      1459.523          28.900

  20075740.648                   105498792.734 7        99.959          48.900
                  20075747.188    82206846.880 9        77.892          44.000

  21970633.398                   115456416.319 6      2267.145          46.000
                  21970640.352    89966105.199 8      1766.608          37.000

  23512394.195                   123558445.384 5     -2265.067          40.100
                  23512401.254    96279342.852 7     -1764.979          26.200

  23884967.719                   125516312.069 5      2747.654          39.500
                  23884972.090    97804979.243 6      2141.017          22.600

  23814225.961                   125144554.472 5     -2954.936          39.900
                  23814236.879    97515274.254 6     -2302.546          22.900

  22067005.375                   115962895.156 7      2693.981          51.300
                  22067012.453    90360736.210 8      2099.210          39.000

  20899496.508                   109827530.355 7     -1632.211          50.400
                  20899505.297    85579982.212 9     -1271.854          45.700

 18  7  1  0  2 40.0000000  0 11G01G08G10G11G14G18G20G22G27G31G32
  23728365.758                   124693414.649 4      3310.092          38.000
                  23728375.789    97163730.845 6      2579.294          26.000

  23356543.648                   122739434.223 5     -1956.568          40.900
                  23356553.926    95641158.519 7     -1524.599          26.700

