% program   : rnx2rtkp ver.2.4.2
% inp file  : data/1_filteredSV/MTLD182A00_modified.*
% obs start : 2018/07/01 00:00:00.0 GPST (week2008      0.0s)
% obs end   : 2047/04/25 20:42:09.0 GPST (week3511 420129.0s)
%
% (lat/lon/height=WGS84/ellipsoidal,Q=1:fix,2:float,3:sbas,4:dgps,5:single,6:ppp,ns=# of satellites)
%  GPST          latitude(deg) longitude(deg)  height(m)   Q  ns   sdn(m)   sde(m)   sdu(m)  sdne(m)  sdeu(m)  sdun(m) age(s)  ratio
2008      0.000  -32.736983234  151.560300256    59.3837   5  11   4.3091   3.4531   9.1557  -1.9163  -3.4534   2.9860   0.00    0.0
2008      5.000  -32.736983882  151.560301978    59.9774   5  11   4.3103   3.4523   9.1567  -1.9175  -3.4520   2.9944   0.00    0.0
2008     10.000  -32.736984107  151.560300094    60.7915   5  11   4.3115   3.4515   9.1578  -1.9187  -3.4507   3.0028   0.00    0.0
2008     15.000  -32.736983690  151.560298380    60.1329   5  11   4.3127   3.4508   9.1588  -1.9199  -3.4493   3.0112   0.00    0.0
2008     20.000  -32.736985328  151.560301909    59.8727   5  11   4.3139   3.4500   9.1598  -1.9211  -3.4479   3.0196   0.00    0.0
2008     25.000  -32.736983207  151.560300561    59.9379   5  11   4.3152   3.4492   9.1608  -1.9223  -3.4465   3.0279   0.00    0.0
2008     30.000  -32.736986309  151.560302627    59.2852   5  11   4.3164   3.4485   9.1618  -1.9235  -3.4451   3.0362   0.00    0.0
2008     35.000  -32.736982430  151.560299999    60.0406   5  11   4.3176   3.4477   9.1628  -1.9247  -3.4437   3.0445   0.00    0.0
2008     40.000  -32.736987282  151.560300753    60.2385   5  11   4.3189   3.4469   9.1638  -1.9258  -3.4423   3.0528   0.00    0.0
2008     45.000  -32.736984932  151.560301351    59.5927   5  11   4.3201   3.4462   9.1648  -1.9270  -3.4409   3.0611   0.00    0.0
2008     50.000  -32.736988019  151.560303606    59.5969   5  11   4.3214   3.4454   9.1658  -1.9282  -3.4395   3.0693   0.00    0.0
2008     55.000  -32.736983053  151.560295839    60.1766   5  11   4.3226   3.4446   9.1668  -1.9294  -3.4381   3.0776   0.00    0.0
2008     60.000  -32.736984913  151.560300454    59.9515   5  11   4.3239   3.4439   9.1678  -1.9305  -3.4367   3.0858   0.00    0.0
2008     65.000  -32.736981842  151.560298237    59.8625   5  11   4.3252   3.4431   9.1688  -1.9317  -3.4353   3.0940   0.00    0.0
2008     70.000  -32.736984714  151.560298337    60.0108   5  11   4.3265   3.4423   9.1698  -1.9328  -3.4339   3.1022   0.00    0.0
2008     75.000  -32.736985887  151.560299805    59.9535   5  11   4.3277   3.4416   9.1707  -1.9340  -3.4325   3.1103   0.00    0.0
2008     80.000  -32.736986725  151.560299137    60.8060   5  11   4.3290   3.4408   9.1717  -1.9351  -3.4311   3.1185   0.00    0.0
2008     85.000  -32.736986321  151.560299041    59.5665   5  11   4.3303   3.4400   9.1727  -1.9363  -3.4296   3.1266   0.00    0.0
2008     90.000  -32.736982213  151.560298351    60.0303   5  11   4.3316   3.4393   9.1736  -1.9374  -3.4282   3.1347   0.00    0.0
2008     95.000  -32.736985998  151.560300168    59.3399   5  11   4.3329   3.4385   9.1746  -1.9385  -3.4268   3.1428   0.00    0.0
2008    100.000  -32.736984339  151.560301545    59.6281   5  11   4.3343   3.4378   9.1755  -1.9397  -3.4253   3.1509   0.00    0.0
2008    105.000  -32.736985270  151.560300252    59.6853   5  11   4.3356   3.4370   9.1765  -1.9408  -3.4239   3.1590   0.00    0.0
2008    110.000  -32.736984004  151.560302180    59.0868   5  11   4.3369   3.4362   9.1774  -1.9419  -3.4224   3.1670   0.00    0.0
2008    115.000  -32.736984930  151.560300458    59.9165   5  11   4.3382   3.4355   9.1784  -1.9430  -3.4210   3.1751   0.00    0.0
2008    120.000  -32.736988694  151.560301622    60.0752   5  11   4.3396   3.4347   9.1793  -1.9441  -3.4195   3.1831   0.00    0.0
2008    125.000  -32.736985631  151.560300738    59.2054   5  11   4.3409   3.4339   9.1802  -1.9452  -3.4181   3.1911   0.00    0.0
2008    130.000  -32.736990848  151.560301547    60.0261   5  11   4.3423   3.4332   9.1812  -1.9463  -3.4166   3.1991   0.00    0.0
2008    135.000  -32.736989700  151.560301411    59.9956   5  11   4.3436   3.4324   9.1821  -1.9474  -3.4151   3.2070   0.00    0.0
2008    140.000  -32.736989636  151.560300131    60.0170   5  11   4.3450   3.4317   9.1830  -1.9485  -3.4137   3.2150   0.00    0.0
2008    145.000  -32.736990465  151.560302593    59.9011   5  11   4.3464   3.4309   9.1839  -1.9496  -3.4122   3.2229   0.00    0.0
2008    150.000  -32.736988392  151.560299227    60.5135   5  11   4.3477   3.4301   9.1848  -1.9507  -3.4107   3.2308   0.00    0.0
2008    155.000  -32.736990119  151.560299075    59.8636   5  11   4.3491   3.4294   9.1857  -1.9517  -3.4092   3.2387   0.00    0.0
2008    160.000  -32.736989589  151.560299970    59.8094   5  11   4.3505   3.4286   9.1867  -1.9528  -3.4078   3.2466   0.00    0.0
2008    165.000  -32.736987941  151.560302518    59.6668   5  11   4.3519   3.4279   9.1876  -1.9539  -3.4063   3.2545   0.00    0.0
2008    170.000  -32.736993043  151.560301605    59.8198   5  11   4.3533   3.4271   9.1884  -1.9549  -3.4048   3.2623   0.00    0.0
2008    175.000  -32.736990694  151.560296946    59.3756   5  11   4.3547   3.4263   9.1893  -1.9560  -3.4033   3.2702   0.00    0.0
2008    180.000  -32.736987526  151.560297760    59.6775   5  11   4.3561   3.4256   9.1902  -1.9570  -3.4018   3.2780   0.00    0.0
2008    185.000  -32.736988954  151.560298208    60.8814   5  11   4.3575   3.4248   9.1911  -1.9581  -3.4003   3.2858   0.00    0.0
2008    190.000  -32.736988578  151.560304959    59.4064   5  11   4.3589   3.4241   9.1920  -1.9591  -3.3988   3.2936   0.00    0.0
2008    195.000  -32.736990613  151.560304811    59.2191   5  11   4.3603   3.4233   9.1929  -1.9602  -3.3973   3.3014   0.00    0.0
2008    200.000  -32.736992178  151.560301753    59.6841   5  11   4.3618   3.4226   9.1937  -1.9612  -3.3957   3.3091   0.00    0.0
2008    205.000  -32.736988461  151.560303697    60.2391   5  11   4.3632   3.4218   9.1946  -1.9622  -3.3942   3.3169   0.00    0.0
2008    210.000  -32.736991993  151.560300810    59.6764   5  11   4.3646   3.4211   9.1955  -1.9632  -3.3927   3.3246   0.00    0.0
2008    215.000  -32.736992577  151.560300361    60.5027   5  11   4.3661   3.4203   9.1963  -1.9643  -3.3912   3.3323   0.00    0.0
2008    220.000  -32.736990728  151.560299918    59.8598   5  11   4.3675   3.4195   9.1972  -1.9653  -3.3896   3.3400   0.00    0.0
2008    225.000  -32.736990453  151.560301480    60.1253   5  11   4.3690   3.4188   9.1980  -1.9663  -3.3881   3.3477   0.00    0.0
2008    230.000  -32.736990907  151.560299301    60.3019   5  11   4.3705   3.4180   9.1989  -1.9673  -3.3866   3.3554   0.00    0.0
2008    235.000  -32.736991249  151.560300450    60.5228   5  11   4.3719   3.4173   9.1997  -1.9683  -3.3850   3.3630   0.00    0.0
2008    240.000  -32.736991812  151.560297102    60.7265   5  11   4.3734   3.4165   9.2006  -1.9693  -3.3835   3.3707   0.00    0.0
2008    245.000  -32.736988383  151.560297562    60.6713   5  11   4.3749   3.4158   9.2014  -1.9703  -3.3819   3.3783   0.00    0.0
2008    250.000  -32.736990129  151.560297961    60.8309   5  11   4.3764   3.4150   9.2022  -1.9712  -3.3804   3.3859   0.00    0.0
2008    255.000  -32.736990182  151.560300655    60.0213   5  11   4.3779   3.4143   9.2031  -1.9722  -3.3788   3.3935   0.00    0.0
2008    260.000  -32.736990255  151.560298191    60.2893   5  11   4.3794   3.4135   9.2039  -1.9732  -3.3772   3.4011   0.00    0.0
2008    265.000  -32.736991854  151.560300837    60.3063   5  11   4.3809   3.4128   9.2047  -1.9742  -3.3757   3.4087   0.00    0.0
2008    270.000  -32.736991521  151.560304285    59.7860   5  11   4.3824   3.4120   9.2055  -1.9751  -3.3741   3.4162   0.00    0.0
2008    275.000  -32.736987059  151.560299395    59.7110   5  11   4.3839   3.4113   9.2063  -1.9761  -3.3725   3.4238   0.00    0.0
2008    280.000  -32.736991672  151.560299814    60.2479   5  11   4.3854   3.4105   9.2072  -1.9770  -3.3710   3.4313   0.00    0.0
2008    285.000  -32.736988676  151.560300315    60.7302   5  11   4.3870   3.4098   9.2080  -1.9780  -3.3694   3.4388   0.00    0.0
2008    290.000  -32.736988041  151.560300323    60.0299   5  11   4.3885   3.4090   9.2088  -1.9789  -3.3678   3.4463   0.00    0.0
2008    295.000  -32.736988529  151.560299029    60.3245   5  11   4.3900   3.4083   9.2096  -1.9798  -3.3662   3.4538   0.00    0.0
2008    300.000  -32.736988206  151.560298351    61.0702   5  11   4.3916   3.4075   9.2104  -1.9808  -3.3646   3.4612   0.00    0.0
2008    305.000  -32.736990467  151.560297786    60.4622   5  11   4.3931   3.4068   9.2111  -1.9817  -3.3630   3.4687   0.00    0.0
2008    310.000  -32.736991998  151.560297407    60.1350   5  11   4.3947   3.4060   9.2119  -1.9826  -3.3614   3.4761   0.00    0.0
2008    315.000  -32.736990071  151.560299508    59.7695   5  11   4.3962   3.4053   9.2127  -1.9835  -3.3598   3.4836   0.00    0.0
2008    320.000  -32.736991881  151.560300673    61.1295   5  11   4.3978   3.4045   9.2135  -1.9844  -3.3582   3.4910   0.00    0.0
2008    325.000  -32.736994208  151.560297787    60.1568   5  11   4.3994   3.4038   9.2143  -1.9854  -3.3566   3.4984   0.00    0.0
2008    330.000  -32.736992086  151.560299004    60.7341   5  11   4.4010   3.4030   9.2150  -1.9863  -3.3549   3.5058   0.00    0.0
2008    335.000  -32.736990022  151.560298723    60.1462   5  11   4.4025   3.4023   9.2158  -1.9872  -3.3533   3.5131   0.00    0.0
2008    340.000  -32.736989100  151.560296618    60.3764   5  11   4.4041   3.4015   9.2166  -1.9880  -3.3517   3.5205   0.00    0.0
2008    345.000  -32.736991652  151.560299806    59.8267   5  11   4.4057   3.4008   9.2173  -1.9889  -3.3500   3.5278   0.00    0.0
2008    350.000  -32.736992002  151.560300471    60.5076   5  11   4.4073   3.4000   9.2181  -1.9898  -3.3484   3.5352   0.00    0.0
2008    355.000  -32.736995837  151.560304773    59.8829   5  11   4.4089   3.3993   9.2188  -1.9907  -3.3468   3.5425   0.00    0.0
2008    360.000  -32.736981476  151.560298929    59.6223   5  10   5.5852   3.5384   9.5030  -2.7096  -2.9867   2.1698   0.00    0.0
2008    365.000  -32.736981060  151.560296350    59.2612   5  10   5.5861   3.5377   9.5039  -2.7100  -2.9848   2.1814   0.00    0.0
2008    370.000  -32.736979170  151.560297714    58.8658   5  10   5.5871   3.5369   9.5048  -2.7104  -2.9829   2.1929   0.00    0.0
2008    375.000  -32.736985429  151.560297004    59.1942   5  10   5.5880   3.5361   9.5057  -2.7109  -2.9810   2.2044   0.00    0.0
2008    380.000  -32.736980164  151.560297196    59.2831   5  10   5.5890   3.5354   9.5066  -2.7113  -2.9791   2.2159   0.00    0.0
2008    385.000  -32.736983089  151.560296493    59.1860   5  10   5.5899   3.5346   9.5075  -2.7117  -2.9771   2.2273   0.00    0.0
2008    390.000  -32.736981310  151.560296892    59.2650   5  10   5.5909   3.5339   9.5083  -2.7121  -2.9752   2.2387   0.00    0.0
2008    395.000  -32.736984242  151.560298431    59.2976   5  10   5.5918   3.5331   9.5092  -2.7125  -2.9733   2.2500   0.00    0.0
2008    400.000  -32.736983412  151.560296170    59.3981   5  10   5.5928   3.5323   9.5101  -2.7129  -2.9714   2.2613   0.00    0.0
2008    405.000  -32.736985544  151.560296682    58.7764   5  10   5.5937   3.5316   9.5109  -2.7133  -2.9694   2.2725   0.00    0.0
2008    410.000  -32.736982706  151.560298080    59.7275   5  10   5.5947   3.5308   9.5118  -2.7137  -2.9675   2.2837   0.00    0.0
2008    415.000  -32.736984882  151.560298431    58.7260   5  10   5.5956   3.5300   9.5126  -2.7141  -2.9655   2.2949   0.00    0.0
2008    420.000  -32.736987227  151.560296319    59.7296   5  10   5.5966   3.5293   9.5135  -2.7144  -2.9636   2.3060   0.00    0.0
2008    425.000  -32.736986455  151.560297411    59.5870   5  10   5.5975   3.5285   9.5143  -2.7148  -2.9617   2.3170   0.00    0.0
2008    430.000  -32.736986984  151.560294604    59.4619   5  10   5.5985   3.5278   9.5151  -2.7152  -2.9597   2.3281   0.00    0.0
2008    435.000  -32.736986517  151.560296864    58.8212   5  10   5.5995   3.5270   9.5159  -2.7155  -2.9578   2.3391   0.00    0.0
2008    440.000  -32.736984585  151.560295104    59.1732   5  10   5.6004   3.5262   9.5168  -2.7159  -2.9558   2.3500   0.00    0.0
2008    445.000  -32.736984858  151.560296933    58.9571   5  10   5.6014   3.5255   9.5176  -2.7162  -2.9538   2.3610   0.00    0.0
2008    450.000  -32.736985524  151.560295557    59.4537   5  10   5.6023   3.5247   9.5184  -2.7166  -2.9519   2.3719   0.00    0.0
2008    455.000  -32.736984449  151.560295981    59.3966   5  10   5.6033   3.5240   9.5192  -2.7169  -2.9499   2.3827   0.00    0.0
2008    460.000  -32.736985316  151.560297109    59.2566   5  10   5.6042   3.5232   9.5199  -2.7172  -2.9479   2.3935   0.00    0.0
2008    465.000  -32.736983951  151.560296649    59.1632   5  10   5.6052   3.5224   9.5207  -2.7176  -2.9460   2.4043   0.00    0.0
2008    470.000  -32.736982955  151.560296791    59.2570   5  10   5.6062   3.5217   9.5215  -2.7179  -2.9440   2.4150   0.00    0.0
2008    475.000  -32.736984949  151.560292213    59.7837   5  10   5.6071   3.5209   9.5223  -2.7182  -2.9420   2.4258   0.00    0.0
2008    480.000  -32.736985548  151.560295810    59.3180   5  10   5.6081   3.5202   9.5230  -2.7185  -2.9400   2.4364   0.00    0.0
2008    485.000  -32.736982273  151.560297100    59.3451   5  10   5.6090   3.5194   9.5238  -2.7188  -2.9380   2.4471   0.00    0.0
2008    490.000  -32.736984389  151.560297493    59.1765   5  10   5.6100   3.5186   9.5245  -2.7191  -2.9361   2.4577   0.00    0.0
2008    495.000  -32.736982469  151.560293775    59.7896   5  10   5.6110   3.5179   9.5253  -2.7194  -2.9341   2.4682   0.00    0.0
2008    500.000  -32.736983227  151.560295404    59.9871   5  10   5.6119   3.5171   9.5260  -2.7197  -2.9321   2.4788   0.00    0.0
2008    505.000  -32.736977710  151.560296573    59.1617   5  10   5.6129   3.5164   9.5267  -2.7200  -2.9301   2.4893   0.00    0.0
2008    510.000  -32.736984601  151.560298021    58.4788   5  10   5.6139   3.5156   9.5275  -2.7202  -2.9281   2.4998   0.00    0.0
2008    515.000  -32.736983414  151.560294123    58.4146   5  10   5.6148   3.5148   9.5282  -2.7205  -2.9261   2.5102   0.00    0.0
2008    520.000  -32.736981658  151.560297149    59.2734   5  10   5.6158   3.5141   9.5289  -2.7208  -2.9241   2.5206   0.00    0.0
2008    525.000  -32.736983143  151.560295423    58.9798   5  10   5.6168   3.5133   9.5296  -2.7210  -2.9220   2.5310   0.00    0.0
2008    530.000  -32.736983384  151.560297727    59.2679   5  10   5.6177   3.5126   9.5303  -2.7213  -2.9200   2.5413   0.00    0.0
2008    535.000  -32.736985007  151.560297910    59.6796   5  10   5.6187   3.5118   9.5310  -2.7215  -2.9180   2.5516   0.00    0.0
2008    540.000  -32.736983773  151.560292720    59.5984   5  10   5.6196   3.5110   9.5317  -2.7218  -2.9160   2.5619   0.00    0.0
2008    545.000  -32.736980346  151.560295325    59.3675   5  10   5.6206   3.5103   9.5324  -2.7220  -2.9140   2.5722   0.00    0.0
2008    550.000  -32.736982698  151.560293519    58.9596   5  10   5.6216   3.5095   9.5331  -2.7222  -2.9119   2.5824   0.00    0.0
2008    555.000  -32.736987839  151.560295462    59.3133   5  10   5.6226   3.5088   9.5337  -2.7224  -2.9099   2.5926   0.00    0.0
2008    560.000  -32.736982407  151.560294425    59.3418   5  10   5.6235   3.5080   9.5344  -2.7227  -2.9079   2.6027   0.00    0.0
2008    565.000  -32.736985348  151.560295211    59.5231   5  10   5.6245   3.5072   9.5351  -2.7229  -2.9058   2.6129   0.00    0.0
2008    570.000  -32.736985841  151.560293272    59.6804   5  10   5.6255   3.5065   9.5357  -2.7231  -2.9038   2.6230   0.00    0.0
2008    575.000  -32.736982232  151.560294956    59.9343   5  10   5.6264   3.5057   9.5364  -2.7233  -2.9017   2.6330   0.00    0.0
2008    580.000  -32.736982088  151.560293894    59.5463   5  10   5.6274   3.5050   9.5370  -2.7235  -2.8997   2.6431   0.00    0.0
2008    585.000  -32.736984619  151.560296770    59.1176   5  10   5.6284   3.5042   9.5376  -2.7236  -2.8976   2.6531   0.00    0.0
2008    590.000  -32.736981637  151.560295371    58.5388   5  10   5.6293   3.5034   9.5383  -2.7238  -2.8956   2.6631   0.00    0.0
2008    595.000  -32.736980671  151.560296533    59.3074   5  10   5.6303   3.5027   9.5389  -2.7240  -2.8935   2.6730   0.00    0.0
2008    600.000  -32.736982427  151.560295976    58.7273   5  10   5.6313   3.5019   9.5395  -2.7242  -2.8914   2.6829   0.00    0.0
2008    605.000  -32.736986658  151.560298964    58.8409   5  10   5.6323   3.5012   9.5401  -2.7243  -2.8894   2.6928   0.00    0.0
2008    610.000  -32.736982881  151.560297472    58.8823   5  10   5.6332   3.5004   9.5407  -2.7245  -2.8873   2.7027   0.00    0.0
2008    615.000  -32.736983090  151.560297258    59.6750   5  10   5.6342   3.4996   9.5413  -2.7246  -2.8852   2.7126   0.00    0.0
2008    620.000  -32.736982538  151.560294461    59.3621   5  10   5.6352   3.4989   9.5419  -2.7248  -2.8831   2.7224   0.00    0.0
2008    625.000  -32.736982990  151.560292319    59.5724   5  10   5.6362   3.4981   9.5425  -2.7249  -2.8811   2.7322   0.00    0.0
2008    630.000  -32.736983365  151.560294720    58.5130   5  10   5.6372   3.4974   9.5431  -2.7251  -2.8790   2.7419   0.00    0.0
2008    635.000  -32.736981296  151.560293351    59.3913   5  10   5.6381   3.4966   9.5437  -2.7252  -2.8769   2.7517   0.00    0.0
2008    640.000  -32.736979953  151.560294471    59.1356   5  10   5.6391   3.4958   9.5442  -2.7253  -2.8748   2.7614   0.00    0.0
2008    645.000  -32.736986830  151.560294470    59.4646   5  10   5.6401   3.4951   9.5448  -2.7254  -2.8727   2.7711   0.00    0.0
2008    650.000  -32.736985302  151.560294706    59.5661   5  10   5.6411   3.4943   9.5454  -2.7255  -2.8706   2.7807   0.00    0.0
2008    655.000  -32.736987839  151.560296474    58.9323   5  10   5.6421   3.4936   9.5459  -2.7256  -2.8685   2.7904   0.00    0.0
2008    660.000  -32.736986513  151.560296600    58.7018   5  10   5.6430   3.4928   9.5465  -2.7257  -2.8664   2.8000   0.00    0.0
2008    665.000  -32.736985632  151.560293715    59.2903   5  10   5.6440   3.4920   9.5470  -2.7258  -2.8642   2.8096   0.00    0.0
2008    670.000  -32.736984683  151.560294857    59.4040   5  10   5.6450   3.4913   9.5476  -2.7259  -2.8621   2.8191   0.00    0.0
2008    675.000  -32.736989027  151.560295277    59.4331   5  10   5.6460   3.4905   9.5481  -2.7260  -2.8600   2.8286   0.00    0.0
2008    680.000  -32.736989430  151.560293425    58.7693   5  10   5.6470   3.4898   9.5486  -2.7261  -2.8579   2.8382   0.00    0.0
2008    685.000  -32.736988528  151.560295218    59.2312   5  10   5.6480   3.4890   9.5491  -2.7261  -2.8557   2.8476   0.00    0.0
2008    690.000  -32.736986699  151.560294787    59.5670   5  10   5.6490   3.4882   9.5497  -2.7262  -2.8536   2.8571   0.00    0.0
2008    695.000  -32.736984991  151.560297016    58.9041   5  10   5.6500   3.4875   9.5502  -2.7263  -2.8515   2.8665   0.00    0.0
2008    700.000  -32.736986336  151.560298296    59.0214   5  10   5.6509   3.4867   9.5507  -2.7263  -2.8493   2.8759   0.00    0.0
2008    705.000  -32.736987433  151.560300590    58.7162   5  10   5.6519   3.4859   9.5512  -2.7263  -2.8472   2.8853   0.00    0.0
2008    710.000  -32.736987967  151.560296143    59.5493   5  10   5.6529   3.4852   9.5517  -2.7264  -2.8450   2.8947   0.00    0.0
2008    715.000  -32.736990509  151.560297603    59.6410   5  10   5.6539   3.4844   9.5522  -2.7264  -2.8429   2.9040   0.00    0.0
2008    720.000  -32.736988530  151.560295569    59.3010   5  10   5.6549   3.4837   9.5526  -2.7264  -2.8407   2.9133   0.00    0.0
2008    725.000  -32.736984959  151.560296602    58.6061   5  10   5.6559   3.4829   9.5531  -2.7264  -2.8385   2.9226   0.00    0.0
2008    730.000  -32.736983507  151.560295927    58.8589   5  10   5.6569   3.4821   9.5536  -2.7265  -2.8364   2.9319   0.00    0.0
2008    735.000  -32.736986848  151.560295774    59.0909   5  10   5.6579   3.4814   9.5541  -2.7265  -2.8342   2.9411   0.00    0.0
2008    740.000  -32.736989284  151.560291938    59.6927   5  10   5.6589   3.4806   9.5545  -2.7265  -2.8320   2.9504   0.00    0.0
2008    745.000  -32.736988517  151.560294375    59.1326   5  10   5.6599   3.4799   9.5550  -2.7265  -2.8298   2.9596   0.00    0.0
2008    750.000  -32.736988060  151.560296025    58.5627   5  10   5.6609   3.4791   9.5554  -2.7264  -2.8276   2.9687   0.00    0.0
2008    755.000  -32.736986739  151.560298288    58.6588   5  10   5.6619   3.4783   9.5559  -2.7264  -2.8255   2.9779   0.00    0.0
2008    760.000  -32.736983074  151.560296381    59.1451   5  10   5.6629   3.4776   9.5563  -2.7264  -2.8233   2.9870   0.00    0.0
2008    765.000  -32.736985622  151.560297268    59.0484   5  10   5.6639   3.4768   9.5568  -2.7264  -2.8211   2.9961   0.00    0.0
2008    770.000  -32.736987156  151.560297254    58.8538   5  10   5.6649   3.4761   9.5572  -2.7263  -2.8188   3.0052   0.00    0.0
2008    775.000  -32.736981472  151.560290309    60.6099   5  10   5.6659   3.4753   9.5576  -2.7263  -2.8166   3.0143   0.00    0.0
2008    780.000  -32.736983619  151.560290320    59.5423   5  10   5.6669   3.4745   9.5580  -2.7262  -2.8144   3.0233   0.00    0.0
2008    785.000  -32.736984446  151.560290452    59.1640   5  10   5.6679   3.4738   9.5584  -2.7262  -2.8122   3.0323   0.00    0.0
2008    790.000  -32.736987363  151.560293895    59.1914   5  10   5.6689   3.4730   9.5588  -2.7261  -2.8100   3.0413   0.00    0.0
2008    795.000  -32.736986993  151.560293147    59.2610   5  10   5.6699   3.4722   9.5593  -2.7260  -2.8078   3.0503   0.00    0.0
2008    800.000  -32.736986479  151.560293985    59.4238   5  10   5.6709   3.4715   9.5596  -2.7260  -2.8055   3.0592   0.00    0.0
2008    805.000  -32.736978280  151.560290071    60.0475   5  10   5.6719   3.4707   9.5600  -2.7259  -2.8033   3.0682   0.00    0.0
2008    810.000  -32.736982831  151.560295174    60.0167   5  10   5.6729   3.4700   9.5604  -2.7258  -2.8010   3.0771   0.00    0.0
2008    815.000  -32.736981981  151.560292875    59.8886   5  10   5.6739   3.4692   9.5608  -2.7257  -2.7988   3.0860   0.00    0.0
2008    820.000  -32.736985847  151.560294614    59.7389   5  10   5.6749   3.4684   9.5612  -2.7256  -2.7965   3.0948   0.00    0.0
2008    825.000  -32.736985922  151.560294602    60.0562   5  10   5.6760   3.4677   9.5616  -2.7255  -2.7943   3.1037   0.00    0.0
2008    830.000  -32.736983268  151.560294466    60.2972   5  10   5.6770   3.4669   9.5619  -2.7254  -2.7920   3.1125   0.00    0.0
2008    835.000  -32.736981176  151.560294584    60.3955   5  10   5.6780   3.4662   9.5623  -2.7252  -2.7898   3.1213   0.00    0.0
2008    840.000  -32.736981927  151.560295886    59.5945   5  10   5.6790   3.4654   9.5627  -2.7251  -2.7875   3.1301   0.00    0.0
2008    845.000  -32.736985713  151.560296831    58.3703   5  10   5.6800   3.4646   9.5630  -2.7250  -2.7852   3.1388   0.00    0.0
2008    850.000  -32.736986603  151.560295350    58.8058   5  10   5.6810   3.4639   9.5634  -2.7248  -2.7829   3.1476   0.00    0.0
2008    855.000  -32.736984852  151.560298486    58.7415   5  10   5.6820   3.4631   9.5637  -2.7247  -2.7806   3.1563   0.00    0.0
2008    860.000  -32.736984461  151.560298352    59.0577   5  10   5.6831   3.4623   9.5640  -2.7245  -2.7784   3.1650   0.00    0.0
2008    865.000  -32.736988651  151.560299136    59.3394   5  10   5.6841   3.4616   9.5644  -2.7244  -2.7761   3.1737   0.00    0.0
2008    870.000  -32.736985800  151.560298053    60.0542   5  10   5.6851   3.4608   9.5647  -2.7242  -2.7738   3.1823   0.00    0.0
2008    875.000  -32.736985668  151.560296008    59.5617   5  10   5.6861   3.4601   9.5650  -2.7240  -2.7714   3.1910   0.00    0.0
2008    880.000  -32.736985429  151.560297363    60.0908   5  10   5.6871   3.4593   9.5653  -2.7238  -2.7691   3.1996   0.00    0.0
2008    885.000  -32.736985116  151.560295763    59.2741   5  10   5.6882   3.4585   9.5656  -2.7236  -2.7668   3.2082   0.00    0.0
2008    890.000  -32.736983860  151.560293463    59.5164   5  10   5.6892   3.4578   9.5660  -2.7235  -2.7645   3.2168   0.00    0.0
2008    895.000  -32.736983440  151.560294937    60.3741   5  10   5.6902   3.4570   9.5663  -2.7233  -2.7622   3.2253   0.00    0.0
2008    900.000  -32.736984503  151.560298284    59.7735   5  10   5.6912   3.4562   9.5666  -2.7230  -2.7598   3.2339   0.00    0.0
2008    905.000  -32.736988100  151.560293783    59.8692   5  10   5.6923   3.4555   9.5669  -2.7228  -2.7575   3.2424   0.00    0.0
2008    910.000  -32.736985809  151.560294446    60.3913   5  10   5.6933   3.4547   9.5671  -2.7226  -2.7552   3.2509   0.00    0.0
2008    915.000  -32.736983508  151.560292589    59.8332   5  10   5.6943   3.4539   9.5674  -2.7224  -2.7528   3.2594   0.00    0.0
2008    920.000  -32.736980158  151.560295476    59.7196   5  10   5.6954   3.4532   9.5677  -2.7221  -2.7505   3.2678   0.00    0.0
2008    925.000  -32.736983004  151.560292136    59.9043   5  10   5.6964   3.4524   9.5680  -2.7219  -2.7481   3.2763   0.00    0.0
2008    930.000  -32.736984537  151.560293001    59.9052   5  10   5.6974   3.4517   9.5682  -2.7217  -2.7457   3.2847   0.00    0.0
2008    935.000  -32.736982922  151.560292164    59.4930   5  10   5.6984   3.4509   9.5685  -2.7214  -2.7434   3.2931   0.00    0.0
2008    940.000  -32.736982988  151.560291543    59.7960   5  10   5.6995   3.4501   9.5688  -2.7211  -2.7410   3.3015   0.00    0.0
2008    945.000  -32.736982287  151.560292813    59.6207   5  10   5.7005   3.4494   9.5690  -2.7209  -2.7386   3.3099   0.00    0.0
2008    950.000  -32.736983457  151.560291497    60.1776   5  10   5.7016   3.4486   9.5693  -2.7206  -2.7362   3.3182   0.00    0.0
2008    955.000  -32.736985135  151.560293009    59.8191   5  10   5.7026   3.4478   9.5695  -2.7203  -2.7338   3.3265   0.00    0.0
2008    960.000  -32.736987428  151.560295973    60.0718   5  10   5.7036   3.4471   9.5698  -2.7200  -2.7314   3.3349   0.00    0.0
2008    965.000  -32.736989216  151.560293397    59.6840   5  10   5.7047   3.4463   9.5700  -2.7197  -2.7290   3.3431   0.00    0.0
2008    970.000  -32.736980936  151.560294327    60.1962   5  10   5.7057   3.4455   9.5702  -2.7194  -2.7266   3.3514   0.00    0.0
2008    975.000  -32.736981936  151.560293138    60.4085   5  10   5.7067   3.4448   9.5705  -2.7191  -2.7242   3.3597   0.00    0.0
2008    980.000  -32.736985727  151.560293531    60.4489   5  10   5.7078   3.4440   9.5707  -2.7188  -2.7218   3.3679   0.00    0.0
2008    985.000  -32.736986230  151.560293349    59.6729   5  10   5.7088   3.4432   9.5709  -2.7185  -2.7194   3.3761   0.00    0.0
2008    990.000  -32.736983407  151.560293200    60.6132   5  10   5.7099   3.4425   9.5711  -2.7181  -2.7169   3.3843   0.00    0.0
2008    995.000  -32.736987196  151.560293370    60.0399   5  10   5.7109   3.4417   9.5713  -2.7178  -2.7145   3.3925   0.00    0.0
2008   1000.000  -32.736984086  151.560291895    59.5440   5  10   5.7120   3.4410   9.5715  -2.7175  -2.7121   3.4007   0.00    0.0
2008   1005.000  -32.736982010  151.560287814    60.5236   5  10   5.7130   3.4402   9.5717  -2.7171  -2.7096   3.4088   0.00    0.0
2008   1010.000  -32.736984437  151.560292909    59.4245   5  10   5.7141   3.4394   9.5719  -2.7168  -2.7072   3.4169   0.00    0.0
2008   1015.000  -32.736982201  151.560293968    59.8717   5  10   5.7151   3.4387   9.5721  -2.7164  -2.7047   3.4250   0.00    0.0
2008   1020.000  -32.736982973  151.560296268    59.8296   5  10   5.7161   3.4379   9.5723  -2.7160  -2.7022   3.4331   0.00    0.0
2008   1025.000  -32.736984790  151.560295879    59.3951   5  10   5.7172   3.4371   9.5725  -2.7156  -2.6998   3.4412   0.00    0.0
2008   1030.000  -32.736984188  151.560292815    60.1470   5  10   5.7182   3.4364   9.5727  -2.7152  -2.6973   3.4493   0.00    0.0
2008   1035.000  -32.736979921  151.560292342    59.3593   5  10   5.7193   3.4356   9.5728  -2.7149  -2.6948   3.4573   0.00    0.0
2008   1040.000  -32.736984842  151.560297529    59.9387   5  10   5.7204   3.4348   9.5730  -2.7145  -2.6923   3.4653   0.00    0.0
2008   1045.000  -32.736984427  151.560295695    59.9143   5  10   5.7214   3.4341   9.5732  -2.7141  -2.6898   3.4733   0.00    0.0
2008   1050.000  -32.736986228  151.560295640    59.7606   5  10   5.7225   3.4333   9.5733  -2.7136  -2.6873   3.4813   0.00    0.0
2008   1055.000  -32.736981865  151.560294236    60.5497   5  10   5.7235   3.4325   9.5735  -2.7132  -2.6848   3.4893   0.00    0.0
2008   1060.000  -32.736981982  151.560293502    60.5323   5  10   5.7246   3.4318   9.5736  -2.7128  -2.6823   3.4972   0.00    0.0
2008   1065.000  -32.736985764  151.560295275    60.1977   5  10   5.7256   3.4310   9.5738  -2.7124  -2.6798   3.5051   0.00    0.0
2008   1070.000  -32.736987737  151.560293900    59.8580   5  10   5.7267   3.4302   9.5739  -2.7119  -2.6772   3.5131   0.00    0.0
2008   1075.000  -32.736984248  151.560294750    59.4340   5  10   5.7278   3.4295   9.5740  -2.7115  -2.6747   3.5209   0.00    0.0
2008   1080.000  -32.736988603  151.560294477    60.2338   5  10   5.7288   3.4287   9.5742  -2.7110  -2.6722   3.5288   0.00    0.0
2008   1085.000  -32.736987935  151.560296279    60.2602   5  10   5.7299   3.4279   9.5743  -2.7105  -2.6696   3.5367   0.00    0.0
2008   1090.000  -32.736988987  151.560292782    61.0173   5  10   5.7309   3.4272   9.5744  -2.7101  -2.6671   3.5445   0.00    0.0
2008   1095.000  -32.736986859  151.560292559    60.4228   5  10   5.7320   3.4264   9.5746  -2.7096  -2.6645   3.5524   0.00    0.0
2008   1100.000  -32.736990546  151.560295780    60.1987   5  10   5.7331   3.4256   9.5747  -2.7091  -2.6620   3.5602   0.00    0.0
2008   1105.000  -32.736985185  151.560298293    60.1630   5  10   5.7341   3.4249   9.5748  -2.7086  -2.6594   3.5680   0.00    0.0
2008   1110.000  -32.736988600  151.560295802    60.1542   5  10   5.7352   3.4241   9.5749  -2.7081  -2.6568   3.5757   0.00    0.0
2008   1115.000  -32.736985746  151.560293722    60.3364   5  10   5.7363   3.4233   9.5750  -2.7076  -2.6542   3.5835   0.00    0.0
2008   1120.000  -32.736987711  151.560294750    60.6625   5  10   5.7373   3.4226   9.5751  -2.7071  -2.6516   3.5912   0.00    0.0
2008   1125.000  -32.736987135  151.560294389    59.3309   5  10   5.7384   3.4218   9.5752  -2.7066  -2.6490   3.5990   0.00    0.0
2008   1130.000  -32.736985797  151.560295748    59.5272   5  10   5.7395   3.4211   9.5753  -2.7061  -2.6464   3.6067   0.00    0.0
2008   1135.000  -32.736982496  151.560295179    59.6779   5  10   5.7405   3.4203   9.5754  -2.7055  -2.6438   3.6144   0.00    0.0
2008   1140.000  -32.736984629  151.560295038    59.4982   5  10   5.7416   3.4195   9.5754  -2.7050  -2.6412   3.6220   0.00    0.0
2008   1145.000  -32.736986881  151.560294053    60.1224   5  10   5.7427   3.4188   9.5755  -2.7044  -2.6386   3.6297   0.00    0.0
2008   1150.000  -32.736984240  151.560295047    59.8359   5  10   5.7438   3.4180   9.5756  -2.7039  -2.6359   3.6373   0.00    0.0
2008   1155.000  -32.736988799  151.560296298    59.4164   5  10   5.7448   3.4172   9.5757  -2.7033  -2.6333   3.6450   0.00    0.0
2008   1160.000  -32.736987495  151.560292333    60.3074   5  10   5.7459   3.4165   9.5757  -2.7027  -2.6307   3.6526   0.00    0.0
2008   1165.000  -32.736987583  151.560294794    59.6867   5  10   5.7470   3.4157   9.5758  -2.7021  -2.6280   3.6602   0.00    0.0
2008   1170.000  -32.736985488  151.560292854    60.4377   5  10   5.7481   3.4149   9.5759  -2.7016  -2.6253   3.6677   0.00    0.0
2008   1175.000  -32.736988998  151.560295286    59.7678   5  10   5.7492   3.4142   9.5759  -2.7010  -2.6227   3.6753   0.00    0.0
2008   1180.000  -32.736986125  151.560293702    60.2050   5  10   5.7502   3.4134   9.5760  -2.7004  -2.6200   3.6828   0.00    0.0
2008   1185.000  -32.736984884  151.560295840    60.2275   5  10   5.7513   3.4126   9.5760  -2.6998  -2.6173   3.6904   0.00    0.0
2008   1190.000  -32.736985863  151.560294129    60.6110   5  10   5.7524   3.4119   9.5760  -2.6991  -2.6146   3.6979   0.00    0.0
2008   1195.000  -32.736987880  151.560295588    60.1103   5  10   5.7535   3.4111   9.5761  -2.6985  -2.6119   3.7054   0.00    0.0
