% program   : rnx2rtkp ver.2.4.2
% inp file  : data/1_filteredSV/NEWE182A00_modified.*
% obs start : 2018/07/01 00:00:00.0 GPST (week2008      0.0s)
% obs end   : 2018/07/01 00:19:55.0 GPST (week2008   1195.0s)
%
% (lat/lon/height=WGS84/ellipsoidal,Q=1:fix,2:float,3:sbas,4:dgps,5:single,6:ppp,ns=# of satellites)
%  GPST          latitude(deg) longitude(deg)  height(m)   Q  ns   sdn(m)   sde(m)   sdu(m)  sdne(m)  sdeu(m)  sdun(m) age(s)  ratio
2008      0.000  -32.923974274  151.788749144    41.0565   5  11   4.3171   3.4682   9.1463  -1.9416  -3.4922   3.0204   0.00    0.0
2008      5.000  -32.923974127  151.788748998    41.0709   5  11   4.3184   3.4674   9.1473  -1.9429  -3.4909   3.0287   0.00    0.0
2008     10.000  -32.923973795  151.788748909    41.0886   5  11   4.3196   3.4667   9.1484  -1.9441  -3.4896   3.0370   0.00    0.0
2008     15.000  -32.923973541  151.788748885    41.1148   5  11   4.3209   3.4659   9.1494  -1.9454  -3.4882   3.0453   0.00    0.0
2008     20.000  -32.923973549  151.788748914    41.0785   5  11   4.3221   3.4651   9.1504  -1.9466  -3.4869   3.0536   0.00    0.0
2008     25.000  -32.923973446  151.788748862    41.0467   5  11   4.3234   3.4643   9.1514  -1.9478  -3.4855   3.0618   0.00    0.0
2008     30.000  -32.923973499  151.788748727    41.0197   5  11   4.3247   3.4636   9.1524  -1.9490  -3.4842   3.0701   0.00    0.0
2008     35.000  -32.923973416  151.788748519    41.0193   5  11   4.3260   3.4628   9.1534  -1.9503  -3.4828   3.0783   0.00    0.0
2008     40.000  -32.923973395  151.788748392    41.0208   5  11   4.3272   3.4620   9.1543  -1.9515  -3.4815   3.0865   0.00    0.0
2008     45.000  -32.923973448  151.788748354    40.9755   5  11   4.3285   3.4613   9.1553  -1.9527  -3.4801   3.0947   0.00    0.0
2008     50.000  -32.923973599  151.788748162    40.9712   5  11   4.3298   3.4605   9.1563  -1.9539  -3.4788   3.1028   0.00    0.0
2008     55.000  -32.923973474  151.788748034    40.9660   5  11   4.3311   3.4597   9.1573  -1.9551  -3.4774   3.1110   0.00    0.0
2008     60.000  -32.923973389  151.788747964    41.0287   5  11   4.3324   3.4589   9.1583  -1.9563  -3.4760   3.1191   0.00    0.0
2008     65.000  -32.923973247  151.788747977    41.0472   5  11   4.3337   3.4582   9.1592  -1.9575  -3.4746   3.1272   0.00    0.0
2008     70.000  -32.923973063  151.788747886    41.1202   5  11   4.3351   3.4574   9.1602  -1.9587  -3.4733   3.1353   0.00    0.0
2008     75.000  -32.923973107  151.788748071    41.1638   5  11   4.3364   3.4566   9.1611  -1.9598  -3.4719   3.1434   0.00    0.0
2008     80.000  -32.923973368  151.788747974    41.1611   5  11   4.3377   3.4559   9.1621  -1.9610  -3.4705   3.1515   0.00    0.0
2008     85.000  -32.923973611  151.788747896    41.1625   5  11   4.3391   3.4551   9.1630  -1.9622  -3.4691   3.1595   0.00    0.0
2008     90.000  -32.923973798  151.788747870    41.1691   5  11   4.3404   3.4543   9.1640  -1.9634  -3.4677   3.1675   0.00    0.0
2008     95.000  -32.923973876  151.788747801    41.2133   5  11   4.3417   3.4536   9.1649  -1.9645  -3.4663   3.1755   0.00    0.0
2008    100.000  -32.923973982  151.788747797    41.2139   5  11   4.3431   3.4528   9.1659  -1.9657  -3.4649   3.1835   0.00    0.0
2008    105.000  -32.923973940  151.788747746    41.2686   5  11   4.3445   3.4520   9.1668  -1.9669  -3.4635   3.1915   0.00    0.0
2008    110.000  -32.923973965  151.788747704    41.3291   5  11   4.3458   3.4513   9.1677  -1.9680  -3.4621   3.1995   0.00    0.0
2008    115.000  -32.923973821  151.788747667    41.3725   5  11   4.3472   3.4505   9.1687  -1.9691  -3.4607   3.2074   0.00    0.0
2008    120.000  -32.923973496  151.788747430    41.4134   5  11   4.3486   3.4497   9.1696  -1.9703  -3.4593   3.2154   0.00    0.0
2008    125.000  -32.923973470  151.788747535    41.4127   5  11   4.3500   3.4490   9.1705  -1.9714  -3.4579   3.2233   0.00    0.0
2008    130.000  -32.923973087  151.788747590    41.4360   5  11   4.3513   3.4482   9.1714  -1.9726  -3.4565   3.2312   0.00    0.0
2008    135.000  -32.923972963  151.788747560    41.4540   5  11   4.3527   3.4474   9.1723  -1.9737  -3.4550   3.2391   0.00    0.0
2008    140.000  -32.923972735  151.788747655    41.4321   5  11   4.3541   3.4467   9.1732  -1.9748  -3.4536   3.2470   0.00    0.0
2008    145.000  -32.923972640  151.788747415    41.4737   5  11   4.3555   3.4459   9.1741  -1.9759  -3.4522   3.2548   0.00    0.0
2008    150.000  -32.923972666  151.788747264    41.4977   5  11   4.3570   3.4451   9.1750  -1.9770  -3.4507   3.2627   0.00    0.0
2008    155.000  -32.923972576  151.788747158    41.5070   5  11   4.3584   3.4444   9.1759  -1.9782  -3.4493   3.2705   0.00    0.0
2008    160.000  -32.923972795  151.788747045    41.4828   5  11   4.3598   3.4436   9.1768  -1.9793  -3.4479   3.2783   0.00    0.0
2008    165.000  -32.923972763  151.788746946    41.4767   5  11   4.3612   3.4428   9.1777  -1.9804  -3.4464   3.2861   0.00    0.0
2008    170.000  -32.923972849  151.788746960    41.4124   5  11   4.3627   3.4421   9.1786  -1.9815  -3.4450   3.2939   0.00    0.0
2008    175.000  -32.923973368  151.788747153    41.3511   5  11   4.3641   3.4413   9.1794  -1.9825  -3.4435   3.3016   0.00    0.0
2008    180.000  -32.923973523  151.788747352    41.2668   5  11   4.3656   3.4405   9.1803  -1.9836  -3.4420   3.3094   0.00    0.0
2008    185.000  -32.923973991  151.788747510    41.2650   5  11   4.3670   3.4398   9.1812  -1.9847  -3.4406   3.3171   0.00    0.0
2008    190.000  -32.923973860  151.788747767    41.2860   5  11   4.3685   3.4390   9.1820  -1.9858  -3.4391   3.3248   0.00    0.0
2008    195.000  -32.923973775  151.788748055    41.3005   5  11   4.3699   3.4383   9.1829  -1.9869  -3.4376   3.3325   0.00    0.0
2008    200.000  -32.923973786  151.788748319    41.2867   5  11   4.3714   3.4375   9.1838  -1.9879  -3.4362   3.3402   0.00    0.0
2008    205.000  -32.923974036  151.788748583    41.2737   5  11   4.3729   3.4367   9.1846  -1.9890  -3.4347   3.3479   0.00    0.0
2008    210.000  -32.923974085  151.788748943    41.2945   5  11   4.3744   3.4360   9.1855  -1.9900  -3.4332   3.3556   0.00    0.0
2008    215.000  -32.923974263  151.788749425    41.3214   5  11   4.3758   3.4352   9.1863  -1.9911  -3.4317   3.3632   0.00    0.0
2008    220.000  -32.923974439  151.788749653    41.3471   5  11   4.3773   3.4345   9.1871  -1.9921  -3.4302   3.3708   0.00    0.0
2008    225.000  -32.923974706  151.788750024    41.4243   5  11   4.3788   3.4337   9.1880  -1.9932  -3.4287   3.3785   0.00    0.0
2008    230.000  -32.923975148  151.788750429    41.4230   5  11   4.3803   3.4329   9.1888  -1.9942  -3.4272   3.3861   0.00    0.0
2008    235.000  -32.923975201  151.788750729    41.4230   5  11   4.3818   3.4322   9.1896  -1.9952  -3.4257   3.3936   0.00    0.0
2008    240.000  -32.923975613  151.788751014    41.4321   5  11   4.3834   3.4314   9.1905  -1.9963  -3.4242   3.4012   0.00    0.0
2008    245.000  -32.923975877  151.788751071    41.4730   5  11   4.3849   3.4307   9.1913  -1.9973  -3.4227   3.4088   0.00    0.0
2008    250.000  -32.923976263  151.788751174    41.4881   5  11   4.3864   3.4299   9.1921  -1.9983  -3.4212   3.4163   0.00    0.0
2008    255.000  -32.923976688  151.788751159    41.5396   5  11   4.3879   3.4291   9.1929  -1.9993  -3.4197   3.4239   0.00    0.0
2008    260.000  -32.923977048  151.788750990    41.5602   5  11   4.3895   3.4284   9.1937  -2.0003  -3.4182   3.4314   0.00    0.0
2008    265.000  -32.923977491  151.788750949    41.5968   5  11   4.3910   3.4276   9.1945  -2.0013  -3.4167   3.4389   0.00    0.0
2008    270.000  -32.923977643  151.788750724    41.6369   5  11   4.3926   3.4269   9.1953  -2.0023  -3.4151   3.4464   0.00    0.0
2008    275.000  -32.923977775  151.788750700    41.6506   5  11   4.3941   3.4261   9.1961  -2.0033  -3.4136   3.4538   0.00    0.0
2008    280.000  -32.923977979  151.788750566    41.6583   5  11   4.3957   3.4254   9.1969  -2.0043  -3.4121   3.4613   0.00    0.0
2008    285.000  -32.923978177  151.788750683    41.6262   5  11   4.3973   3.4246   9.1977  -2.0053  -3.4105   3.4687   0.00    0.0
2008    290.000  -32.923978486  151.788750612    41.6085   5  11   4.3988   3.4238   9.1985  -2.0063  -3.4090   3.4762   0.00    0.0
2008    295.000  -32.923978726  151.788750732    41.5449   5  11   4.4004   3.4231   9.1993  -2.0072  -3.4074   3.4836   0.00    0.0
2008    300.000  -32.923978993  151.788750827    41.4787   5  11   4.4020   3.4223   9.2001  -2.0082  -3.4059   3.4910   0.00    0.0
2008    305.000  -32.923979150  151.788750675    41.4213   5  11   4.4036   3.4216   9.2009  -2.0092  -3.4043   3.4984   0.00    0.0
2008    310.000  -32.923967213  151.788746614    40.4618   5  10   5.5772   3.5600   9.4866  -2.7224  -3.0503   2.0968   0.00    0.0
2008    315.000  -32.923967306  151.788746526    40.3859   5  10   5.5781   3.5592   9.4876  -2.7229  -3.0485   2.1086   0.00    0.0
2008    320.000  -32.923967584  151.788746460    40.3732   5  10   5.5791   3.5584   9.4885  -2.7235  -3.0466   2.1204   0.00    0.0
2008    325.000  -32.923967722  151.788746507    40.2527   5  10   5.5801   3.5576   9.4895  -2.7240  -3.0448   2.1321   0.00    0.0
2008    330.000  -32.923967814  151.788746301    40.2211   5  10   5.5811   3.5569   9.4904  -2.7245  -3.0430   2.1438   0.00    0.0
2008    335.000  -32.923967764  151.788746204    40.1698   5  10   5.5821   3.5561   9.4914  -2.7250  -3.0411   2.1554   0.00    0.0
2008    340.000  -32.923967868  151.788746274    40.0548   5  10   5.5831   3.5553   9.4923  -2.7255  -3.0393   2.1670   0.00    0.0
2008    345.000  -32.923967755  151.788746128    39.9968   5  10   5.5840   3.5546   9.4932  -2.7259  -3.0374   2.1786   0.00    0.0
2008    350.000  -32.923967946  151.788746129    39.9448   5  10   5.5850   3.5538   9.4941  -2.7264  -3.0356   2.1901   0.00    0.0
2008    355.000  -32.923968052  151.788745951    39.8989   5  10   5.5860   3.5530   9.4950  -2.7269  -3.0337   2.2015   0.00    0.0
2008    360.000  -32.923968042  151.788745601    39.8986   5  10   5.5870   3.5523   9.4959  -2.7274  -3.0319   2.2129   0.00    0.0
2008    365.000  -32.923967911  151.788745416    39.8952   5  10   5.5880   3.5515   9.4968  -2.7279  -3.0300   2.2243   0.00    0.0
2008    370.000  -32.923967624  151.788745320    39.8790   5  10   5.5890   3.5507   9.4977  -2.7283  -3.0282   2.2356   0.00    0.0
2008    375.000  -32.923967491  151.788745301    39.8812   5  10   5.5900   3.5500   9.4986  -2.7288  -3.0263   2.2469   0.00    0.0
2008    380.000  -32.923967246  151.788745225    39.8666   5  10   5.5909   3.5492   9.4995  -2.7292  -3.0244   2.2581   0.00    0.0
2008    385.000  -32.923967365  151.788745377    39.8756   5  10   5.5919   3.5484   9.5003  -2.7297  -3.0226   2.2693   0.00    0.0
2008    390.000  -32.923967532  151.788745612    39.9290   5  10   5.5929   3.5477   9.5012  -2.7301  -3.0207   2.2805   0.00    0.0
2008    395.000  -32.923967471  151.788745767    39.9652   5  10   5.5939   3.5469   9.5021  -2.7305  -3.0188   2.2916   0.00    0.0
2008    400.000  -32.923967498  151.788745993    40.0070   5  10   5.5949   3.5461   9.5029  -2.7310  -3.0170   2.3027   0.00    0.0
2008    405.000  -32.923967282  151.788746148    40.0831   5  10   5.5959   3.5454   9.5038  -2.7314  -3.0151   2.3137   0.00    0.0
2008    410.000  -32.923967128  151.788746317    40.1459   5  10   5.5969   3.5446   9.5046  -2.7318  -3.0132   2.3247   0.00    0.0
2008    415.000  -32.923966988  151.788746211    40.2488   5  10   5.5979   3.5438   9.5054  -2.7322  -3.0113   2.3357   0.00    0.0
2008    420.000  -32.923966873  151.788746198    40.3355   5  10   5.5989   3.5430   9.5063  -2.7326  -3.0094   2.3466   0.00    0.0
2008    425.000  -32.923966855  151.788745989    40.3927   5  10   5.5998   3.5423   9.5071  -2.7330  -3.0075   2.3575   0.00    0.0
2008    430.000  -32.923966973  151.788745815    40.4333   5  10   5.6008   3.5415   9.5079  -2.7334  -3.0057   2.3684   0.00    0.0
2008    435.000  -32.923967168  151.788745638    40.4472   5  10   5.6018   3.5407   9.5087  -2.7338  -3.0038   2.3792   0.00    0.0
2008    440.000  -32.923967095  151.788745351    40.5076   5  10   5.6028   3.5400   9.5095  -2.7342  -3.0019   2.3900   0.00    0.0
2008    445.000  -32.923967106  151.788745281    40.5489   5  10   5.6038   3.5392   9.5103  -2.7346  -3.0000   2.4007   0.00    0.0
2008    450.000  -32.923966754  151.788744977    40.6053   5  10   5.6048   3.5384   9.5111  -2.7350  -2.9981   2.4114   0.00    0.0
2008    455.000  -32.923966395  151.788744563    40.6572   5  10   5.6058   3.5377   9.5118  -2.7354  -2.9961   2.4221   0.00    0.0
2008    460.000  -32.923966029  151.788744364    40.7075   5  10   5.6068   3.5369   9.5126  -2.7357  -2.9942   2.4327   0.00    0.0
2008    465.000  -32.923965641  151.788744181    40.7898   5  10   5.6078   3.5361   9.5134  -2.7361  -2.9923   2.4433   0.00    0.0
2008    470.000  -32.923965523  151.788743954    40.8011   5  10   5.6088   3.5354   9.5141  -2.7364  -2.9904   2.4539   0.00    0.0
2008    475.000  -32.923965524  151.788743759    40.8058   5  10   5.6098   3.5346   9.5149  -2.7368  -2.9885   2.4645   0.00    0.0
2008    480.000  -32.923965709  151.788743584    40.8026   5  10   5.6108   3.5338   9.5156  -2.7371  -2.9866   2.4750   0.00    0.0
2008    485.000  -32.923965746  151.788743586    40.8493   5  10   5.6118   3.5331   9.5164  -2.7375  -2.9846   2.4854   0.00    0.0
2008    490.000  -32.923965995  151.788743488    40.9325   5  10   5.6128   3.5323   9.5171  -2.7378  -2.9827   2.4959   0.00    0.0
2008    495.000  -32.923966307  151.788743433    40.9359   5  10   5.6138   3.5315   9.5179  -2.7381  -2.9808   2.5063   0.00    0.0
2008    500.000  -32.923966266  151.788743088    40.9448   5  10   5.6148   3.5308   9.5186  -2.7384  -2.9788   2.5167   0.00    0.0
2008    505.000  -32.923966390  151.788743071    40.9441   5  10   5.6158   3.5300   9.5193  -2.7388  -2.9769   2.5270   0.00    0.0
2008    510.000  -32.923966345  151.788743061    40.9786   5  10   5.6167   3.5292   9.5200  -2.7391  -2.9750   2.5373   0.00    0.0
2008    515.000  -32.923966654  151.788742990    40.9708   5  10   5.6177   3.5285   9.5207  -2.7394  -2.9730   2.5476   0.00    0.0
2008    520.000  -32.923966979  151.788743015    40.9336   5  10   5.6187   3.5277   9.5214  -2.7397  -2.9711   2.5579   0.00    0.0
2008    525.000  -32.923967463  151.788742905    40.8974   5  10   5.6197   3.5269   9.5221  -2.7400  -2.9691   2.5681   0.00    0.0
2008    530.000  -32.923968147  151.788743006    40.8887   5  10   5.6208   3.5262   9.5228  -2.7402  -2.9672   2.5783   0.00    0.0
2008    535.000  -32.923968511  151.788743098    40.9130   5  10   5.6218   3.5254   9.5235  -2.7405  -2.9652   2.5885   0.00    0.0
2008    540.000  -32.923969082  151.788743311    40.8459   5  10   5.6228   3.5246   9.5242  -2.7408  -2.9632   2.5986   0.00    0.0
2008    545.000  -32.923969749  151.788743510    40.7241   5  10   5.6238   3.5239   9.5248  -2.7411  -2.9613   2.6087   0.00    0.0
2008    550.000  -32.923970464  151.788743593    40.6557   5  10   5.6248   3.5231   9.5255  -2.7413  -2.9593   2.6188   0.00    0.0
2008    555.000  -32.923970895  151.788744111    40.5630   5  10   5.6258   3.5223   9.5261  -2.7416  -2.9573   2.6288   0.00    0.0
2008    560.000  -32.923971028  151.788744217    40.5535   5  10   5.6268   3.5216   9.5268  -2.7418  -2.9554   2.6389   0.00    0.0
2008    565.000  -32.923971416  151.788744284    40.5017   5  10   5.6278   3.5208   9.5274  -2.7421  -2.9534   2.6489   0.00    0.0
2008    570.000  -32.923971357  151.788744524    40.4502   5  10   5.6288   3.5200   9.5281  -2.7423  -2.9514   2.6588   0.00    0.0
2008    575.000  -32.923971440  151.788744309    40.4612   5  10   5.6298   3.5193   9.5287  -2.7426  -2.9494   2.6688   0.00    0.0
2008    580.000  -32.923971138  151.788744166    40.4796   5  10   5.6308   3.5185   9.5293  -2.7428  -2.9474   2.6787   0.00    0.0
2008    585.000  -32.923970860  151.788744158    40.4762   5  10   5.6318   3.5177   9.5300  -2.7430  -2.9454   2.6885   0.00    0.0
2008    590.000  -32.923970790  151.788743790    40.4705   5  10   5.6328   3.5170   9.5306  -2.7432  -2.9434   2.6984   0.00    0.0
2008    595.000  -32.923970227  151.788743629    40.4357   5  10   5.6338   3.5162   9.5312  -2.7434  -2.9414   2.7082   0.00    0.0
2008    600.000  -32.923969933  151.788743457    40.4453   5  10   5.6348   3.5154   9.5318  -2.7436  -2.9394   2.7180   0.00    0.0
2008    605.000  -32.923969486  151.788743504    40.4603   5  10   5.6358   3.5146   9.5324  -2.7438  -2.9374   2.7278   0.00    0.0
2008    610.000  -32.923969404  151.788743641    40.4086   5  10   5.6369   3.5139   9.5330  -2.7440  -2.9354   2.7375   0.00    0.0
2008    615.000  -32.923969468  151.788743791    40.3829   5  10   5.6379   3.5131   9.5336  -2.7442  -2.9334   2.7473   0.00    0.0
2008    620.000  -32.923969787  151.788743957    40.3562   5  10   5.6389   3.5123   9.5342  -2.7444  -2.9314   2.7570   0.00    0.0
2008    625.000  -32.923969967  151.788744386    40.3260   5  10   5.6399   3.5116   9.5347  -2.7446  -2.9294   2.7666   0.00    0.0
2008    630.000  -32.923970079  151.788744593    40.3216   5  10   5.6409   3.5108   9.5353  -2.7447  -2.9273   2.7763   0.00    0.0
2008    635.000  -32.923970248  151.788744818    40.2792   5  10   5.6419   3.5100   9.5359  -2.7449  -2.9253   2.7859   0.00    0.0
2008    640.000  -32.923970316  151.788744913    40.2425   5  10   5.6429   3.5093   9.5364  -2.7451  -2.9233   2.7955   0.00    0.0
2008    645.000  -32.923970079  151.788744974    40.2873   5  10   5.6440   3.5085   9.5370  -2.7452  -2.9212   2.8050   0.00    0.0
2008    650.000  -32.923969996  151.788745092    40.3393   5  10   5.6450   3.5077   9.5375  -2.7454  -2.9192   2.8146   0.00    0.0
2008    655.000  -32.923970074  151.788745122    40.3494   5  10   5.6460   3.5070   9.5381  -2.7455  -2.9172   2.8241   0.00    0.0
2008    660.000  -32.923970373  151.788745243    40.3931   5  10   5.6470   3.5062   9.5386  -2.7456  -2.9151   2.8336   0.00    0.0
2008    665.000  -32.923970643  151.788745389    40.4154   5  10   5.6480   3.5054   9.5391  -2.7458  -2.9131   2.8431   0.00    0.0
2008    670.000  -32.923970989  151.788745747    40.4006   5  10   5.6491   3.5047   9.5397  -2.7459  -2.9110   2.8525   0.00    0.0
2008    675.000  -32.923971256  151.788745738    40.4610   5  10   5.6501   3.5039   9.5402  -2.7460  -2.9089   2.8619   0.00    0.0
2008    680.000  -32.923971517  151.788745522    40.4172   5  10   5.6511   3.5031   9.5407  -2.7461  -2.9069   2.8713   0.00    0.0
2008    685.000  -32.923972047  151.788745493    40.4139   5  10   5.6521   3.5023   9.5412  -2.7462  -2.9048   2.8807   0.00    0.0
2008    690.000  -32.923972338  151.788745361    40.4535   5  10   5.6531   3.5016   9.5417  -2.7463  -2.9027   2.8900   0.00    0.0
2008    695.000  -32.923972410  151.788745346    40.4292   5  10   5.6542   3.5008   9.5422  -2.7464  -2.9007   2.8994   0.00    0.0
2008    700.000  -32.923972653  151.788745286    40.4390   5  10   5.6552   3.5000   9.5427  -2.7465  -2.8986   2.9087   0.00    0.0
2008    705.000  -32.923972977  151.788745168    40.4227   5  10   5.6562   3.4993   9.5432  -2.7466  -2.8965   2.9180   0.00    0.0
2008    710.000  -32.923973214  151.788745125    40.4053   5  10   5.6572   3.4985   9.5437  -2.7466  -2.8944   2.9272   0.00    0.0
2008    715.000  -32.923973351  151.788745014    40.4458   5  10   5.6583   3.4977   9.5441  -2.7467  -2.8923   2.9364   0.00    0.0
2008    720.000  -32.923973683  151.788744902    40.4811   5  10   5.6593   3.4970   9.5446  -2.7468  -2.8902   2.9456   0.00    0.0
2008    725.000  -32.923974054  151.788744794    40.5083   5  10   5.6603   3.4962   9.5451  -2.7468  -2.8881   2.9548   0.00    0.0
2008    730.000  -32.923974121  151.788744687    40.5298   5  10   5.6614   3.4954   9.5455  -2.7469  -2.8860   2.9640   0.00    0.0
2008    735.000  -32.923974359  151.788744866    40.5419   5  10   5.6624   3.4947   9.5460  -2.7469  -2.8839   2.9731   0.00    0.0
2008    740.000  -32.923974341  151.788744807    40.5631   5  10   5.6634   3.4939   9.5464  -2.7470  -2.8818   2.9823   0.00    0.0
2008    745.000  -32.923974506  151.788744888    40.5873   5  10   5.6645   3.4931   9.5469  -2.7470  -2.8797   2.9914   0.00    0.0
2008    750.000  -32.923974698  151.788744857    40.5803   5  10   5.6655   3.4923   9.5473  -2.7470  -2.8776   3.0004   0.00    0.0
2008    755.000  -32.923975130  151.788744941    40.6303   5  10   5.6665   3.4916   9.5478  -2.7470  -2.8754   3.0095   0.00    0.0
2008    760.000  -32.923975362  151.788744977    40.6947   5  10   5.6676   3.4908   9.5482  -2.7470  -2.8733   3.0185   0.00    0.0
2008    765.000  -32.923975707  151.788745070    40.7052   5  10   5.6686   3.4900   9.5486  -2.7470  -2.8712   3.0275   0.00    0.0
2008    770.000  -32.923976188  151.788745075    40.7344   5  10   5.6696   3.4893   9.5490  -2.7470  -2.8690   3.0365   0.00    0.0
2008    775.000  -32.923976290  151.788745031    40.8278   5  10   5.6707   3.4885   9.5494  -2.7470  -2.8669   3.0455   0.00    0.0
2008    780.000  -32.923976515  151.788745005    40.8415   5  10   5.6717   3.4877   9.5498  -2.7470  -2.8647   3.0544   0.00    0.0
2008    785.000  -32.923976795  151.788744942    40.8692   5  10   5.6728   3.4869   9.5502  -2.7470  -2.8626   3.0634   0.00    0.0
2008    790.000  -32.923977009  151.788744935    40.8430   5  10   5.6738   3.4862   9.5506  -2.7470  -2.8604   3.0723   0.00    0.0
2008    795.000  -32.923977457  151.788744840    40.8654   5  10   5.6748   3.4854   9.5510  -2.7469  -2.8583   3.0811   0.00    0.0
2008    800.000  -32.923977992  151.788744744    40.8649   5  10   5.6759   3.4846   9.5514  -2.7469  -2.8561   3.0900   0.00    0.0
2008    805.000  -32.923978320  151.788744855    40.8588   5  10   5.6769   3.4839   9.5518  -2.7469  -2.8539   3.0988   0.00    0.0
2008    810.000  -32.923978851  151.788744597    40.8579   5  10   5.6780   3.4831   9.5522  -2.7468  -2.8518   3.1077   0.00    0.0
2008    815.000  -32.923979158  151.788744591    40.8389   5  10   5.6790   3.4823   9.5525  -2.7467  -2.8496   3.1165   0.00    0.0
2008    820.000  -32.923979202  151.788744674    40.8114   5  10   5.6801   3.4815   9.5529  -2.7467  -2.8474   3.1252   0.00    0.0
2008    825.000  -32.923979550  151.788744405    40.8173   5  10   5.6811   3.4808   9.5533  -2.7466  -2.8452   3.1340   0.00    0.0
2008    830.000  -32.923979525  151.788744263    40.7619   5  10   5.6822   3.4800   9.5536  -2.7465  -2.8430   3.1427   0.00    0.0
2008    835.000  -32.923979475  151.788743974    40.7560   5  10   5.6832   3.4792   9.5540  -2.7464  -2.8408   3.1514   0.00    0.0
2008    840.000  -32.923979071  151.788743736    40.7768   5  10   5.6843   3.4785   9.5543  -2.7464  -2.8386   3.1601   0.00    0.0
2008    845.000  -32.923978778  151.788743612    40.7493   5  10   5.6853   3.4777   9.5547  -2.7463  -2.8364   3.1688   0.00    0.0
2008    850.000  -32.923978506  151.788743429    40.7044   5  10   5.6864   3.4769   9.5550  -2.7462  -2.8342   3.1775   0.00    0.0
2008    855.000  -32.923978335  151.788743367    40.6774   5  10   5.6874   3.4761   9.5553  -2.7460  -2.8320   3.1861   0.00    0.0
2008    860.000  -32.923978287  151.788743281    40.6648   5  10   5.6885   3.4754   9.5556  -2.7459  -2.8298   3.1947   0.00    0.0
2008    865.000  -32.923978160  151.788743310    40.5903   5  10   5.6895   3.4746   9.5560  -2.7458  -2.8275   3.2033   0.00    0.0
2008    870.000  -32.923978147  151.788743074    40.5150   5  10   5.6906   3.4738   9.5563  -2.7457  -2.8253   3.2119   0.00    0.0
2008    875.000  -32.923978064  151.788743037    40.4886   5  10   5.6916   3.4731   9.5566  -2.7455  -2.8231   3.2205   0.00    0.0
2008    880.000  -32.923977874  151.788743143    40.3918   5  10   5.6927   3.4723   9.5569  -2.7454  -2.8208   3.2290   0.00    0.0
2008    885.000  -32.923977796  151.788743121    40.3423   5  10   5.6938   3.4715   9.5572  -2.7452  -2.8186   3.2375   0.00    0.0
2008    890.000  -32.923977819  151.788743180    40.2688   5  10   5.6948   3.4707   9.5575  -2.7451  -2.8163   3.2460   0.00    0.0
2008    895.000  -32.923977846  151.788743140    40.2115   5  10   5.6959   3.4700   9.5578  -2.7449  -2.8141   3.2545   0.00    0.0
2008    900.000  -32.923977828  151.788743230    40.1897   5  10   5.6969   3.4692   9.5581  -2.7448  -2.8118   3.2630   0.00    0.0
2008    905.000  -32.923977734  151.788743217    40.1850   5  10   5.6980   3.4684   9.5583  -2.7446  -2.8096   3.2714   0.00    0.0
2008    910.000  -32.923977528  151.788743123    40.1858   5  10   5.6991   3.4676   9.5586  -2.7444  -2.8073   3.2798   0.00    0.0
2008    915.000  -32.923977503  151.788743242    40.1617   5  10   5.7001   3.4669   9.5589  -2.7442  -2.8050   3.2882   0.00    0.0
2008    920.000  -32.923977252  151.788743377    40.1764   5  10   5.7012   3.4661   9.5592  -2.7440  -2.8027   3.2966   0.00    0.0
2008    925.000  -32.923977098  151.788743450    40.1509   5  10   5.7023   3.4653   9.5594  -2.7438  -2.8004   3.3050   0.00    0.0
2008    930.000  -32.923976894  151.788743457    40.1126   5  10   5.7033   3.4645   9.5597  -2.7436  -2.7982   3.3133   0.00    0.0
2008    935.000  -32.923976833  151.788743423    40.0480   5  10   5.7044   3.4638   9.5599  -2.7434  -2.7959   3.3216   0.00    0.0
2008    940.000  -32.923976671  151.788743468    40.0125   5  10   5.7055   3.4630   9.5602  -2.7432  -2.7936   3.3300   0.00    0.0
2008    945.000  -32.923976508  151.788743560    39.9614   5  10   5.7065   3.4622   9.5604  -2.7429  -2.7912   3.3383   0.00    0.0
2008    950.000  -32.923976635  151.788743576    39.8832   5  10   5.7076   3.4614   9.5607  -2.7427  -2.7889   3.3465   0.00    0.0
2008    955.000  -32.923976877  151.788743615    39.8491   5  10   5.7087   3.4607   9.5609  -2.7425  -2.7866   3.3548   0.00    0.0
2008    960.000  -32.923977019  151.788743561    39.7846   5  10   5.7098   3.4599   9.5611  -2.7422  -2.7843   3.3630   0.00    0.0
2008    965.000  -32.923977095  151.788743441    39.7709   5  10   5.7108   3.4591   9.5613  -2.7419  -2.7820   3.3712   0.00    0.0
2008    970.000  -32.923977358  151.788743416    39.7677   5  10   5.7119   3.4583   9.5616  -2.7417  -2.7796   3.3794   0.00    0.0
2008    975.000  -32.923977454  151.788743361    39.7365   5  10   5.7130   3.4576   9.5618  -2.7414  -2.7773   3.3876   0.00    0.0
2008    980.000  -32.923977732  151.788743420    39.7694   5  10   5.7141   3.4568   9.5620  -2.7411  -2.7749   3.3958   0.00    0.0
2008    985.000  -32.923977852  151.788743518    39.7856   5  10   5.7151   3.4560   9.5622  -2.7409  -2.7726   3.4039   0.00    0.0
2008    990.000  -32.923978064  151.788743418    39.8259   5  10   5.7162   3.4552   9.5624  -2.7406  -2.7702   3.4121   0.00    0.0
2008    995.000  -32.923978451  151.788743394    39.8023   5  10   5.7173   3.4545   9.5626  -2.7403  -2.7679   3.4202   0.00    0.0
2008   1000.000  -32.923978819  151.788743511    39.8016   5  10   5.7184   3.4537   9.5628  -2.7400  -2.7655   3.4283   0.00    0.0
2008   1005.000  -32.923979019  151.788743624    39.7726   5  10   5.7195   3.4529   9.5630  -2.7396  -2.7631   3.4363   0.00    0.0
2008   1010.000  -32.923979186  151.788743621    39.7912   5  10   5.7205   3.4521   9.5632  -2.7393  -2.7608   3.4444   0.00    0.0
2008   1015.000  -32.923979301  151.788743512    39.7935   5  10   5.7216   3.4514   9.5633  -2.7390  -2.7584   3.4524   0.00    0.0
2008   1020.000  -32.923979163  151.788743397    39.8035   5  10   5.7227   3.4506   9.5635  -2.7387  -2.7560   3.4605   0.00    0.0
2008   1025.000  -32.923978956  151.788743040    39.8451   5  10   5.7238   3.4498   9.5637  -2.7383  -2.7536   3.4685   0.00    0.0
2008   1030.000  -32.923978674  151.788742651    39.9256   5  10   5.7249   3.4490   9.5638  -2.7380  -2.7512   3.4764   0.00    0.0
2008   1035.000  -32.923978513  151.788742611    39.9459   5  10   5.7260   3.4482   9.5640  -2.7376  -2.7488   3.4844   0.00    0.0
2008   1040.000  -32.923978323  151.788742511    39.9446   5  10   5.7271   3.4475   9.5642  -2.7373  -2.7464   3.4924   0.00    0.0
2008   1045.000  -32.923978521  151.788742389    39.9632   5  10   5.7282   3.4467   9.5643  -2.7369  -2.7440   3.5003   0.00    0.0
2008   1050.000  -32.923978599  151.788742447    39.9715   5  10   5.7292   3.4459   9.5645  -2.7365  -2.7415   3.5082   0.00    0.0
2008   1055.000  -32.923978373  151.788742346    39.9919   5  10   5.7303   3.4451   9.5646  -2.7362  -2.7391   3.5161   0.00    0.0
2008   1060.000  -32.923978273  151.788742401    40.0549   5  10   5.7314   3.4444   9.5647  -2.7358  -2.7367   3.5240   0.00    0.0
2008   1065.000  -32.923978115  151.788742441    40.1196   5  10   5.7325   3.4436   9.5649  -2.7354  -2.7342   3.5319   0.00    0.0
2008   1070.000  -32.923977743  151.788742434    40.1981   5  10   5.7336   3.4428   9.5650  -2.7350  -2.7318   3.5397   0.00    0.0
2008   1075.000  -32.923977585  151.788742477    40.2806   5  10   5.7347   3.4420   9.5651  -2.7346  -2.7293   3.5476   0.00    0.0
2008   1080.000  -32.923977267  151.788742605    40.3476   5  10   5.7358   3.4412   9.5653  -2.7342  -2.7269   3.5554   0.00    0.0
2008   1085.000  -32.923976967  151.788742726    40.4284   5  10   5.7369   3.4405   9.5654  -2.7337  -2.7244   3.5632   0.00    0.0
2008   1090.000  -32.923976797  151.788742850    40.5219   5  10   5.7380   3.4397   9.5655  -2.7333  -2.7219   3.5709   0.00    0.0
2008   1095.000  -32.923976587  151.788742885    40.5804   5  10   5.7391   3.4389   9.5656  -2.7329  -2.7194   3.5787   0.00    0.0
2008   1100.000  -32.923976388  151.788742970    40.6566   5  10   5.7402   3.4381   9.5657  -2.7324  -2.7170   3.5865   0.00    0.0
2008   1105.000  -32.923976030  151.788742910    40.7248   5  10   5.7413   3.4374   9.5658  -2.7320  -2.7145   3.5942   0.00    0.0
2008   1110.000  -32.923975733  151.788742957    40.8034   5  10   5.7424   3.4366   9.5659  -2.7315  -2.7120   3.6019   0.00    0.0
2008   1115.000  -32.923975422  151.788743076    40.8533   5  10   5.7435   3.4358   9.5660  -2.7310  -2.7095   3.6096   0.00    0.0
2008   1120.000  -32.923975220  151.788743136    40.9244   5  10   5.7446   3.4350   9.5661  -2.7306  -2.7070   3.6173   0.00    0.0
2008   1125.000  -32.923975279  151.788743306    40.9322   5  10   5.7457   3.4342   9.5662  -2.7301  -2.7044   3.6250   0.00    0.0
2008   1130.000  -32.923975451  151.788743536    40.9544   5  10   5.7468   3.4335   9.5662  -2.7296  -2.7019   3.6326   0.00    0.0
2008   1135.000  -32.923975638  151.788743639    40.9727   5  10   5.7479   3.4327   9.5663  -2.7291  -2.6994   3.6402   0.00    0.0
2008   1140.000  -32.923975805  151.788743750    40.9689   5  10   5.7490   3.4319   9.5664  -2.7286  -2.6969   3.6479   0.00    0.0
2008   1145.000  -32.923975898  151.788743642    40.9849   5  10   5.7502   3.4311   9.5664  -2.7281  -2.6943   3.6555   0.00    0.0
2008   1150.000  -32.923976016  151.788743596    40.9988   5  10   5.7513   3.4303   9.5665  -2.7276  -2.6918   3.6630   0.00    0.0
2008   1155.000  -32.923975851  151.788743557    41.0740   5  10   5.7524   3.4296   9.5666  -2.7271  -2.6892   3.6706   0.00    0.0
2008   1160.000  -32.923975926  151.788743810    41.0817   5  10   5.7535   3.4288   9.5666  -2.7265  -2.6867   3.6782   0.00    0.0
2008   1165.000  -32.923975774  151.788743959    41.1155   5  10   5.7546   3.4280   9.5667  -2.7260  -2.6841   3.6857   0.00    0.0
2008   1170.000  -32.923975503  151.788744011    41.1658   5  10   5.7557   3.4272   9.5667  -2.7255  -2.6815   3.6932   0.00    0.0
2008   1175.000  -32.923975412  151.788744237    41.1713   5  10   5.7568   3.4264   9.5668  -2.7249  -2.6789   3.7007   0.00    0.0
2008   1180.000  -32.923975252  151.788744352    41.1940   5  10   5.7579   3.4257   9.5668  -2.7243  -2.6763   3.7082   0.00    0.0
2008   1185.000  -32.923975178  151.788744355    41.1894   5  10   5.7591   3.4249   9.5668  -2.7238  -2.6737   3.7157   0.00    0.0
2008   1190.000  -32.923975320  151.788744432    41.1591   5  10   5.7602   3.4241   9.5669  -2.7232  -2.6711   3.7231   0.00    0.0
2008   1195.000  -32.923975432  151.788744402    41.1793   5  10   5.7613   3.4233   9.5669  -2.7226  -2.6685   3.7306   0.00    0.0
