% program   : rnx2rtkp ver.2.4.2
% inp file  : data/1_filteredSV/NWCS182A00_modified.*
% obs start : 2018/07/01 00:00:00.0 GPST (week2008      0.0s)
% obs end   : 2018/07/01 00:19:55.0 GPST (week2008   1195.0s)
%
% (lat/lon/height=WGS84/ellipsoidal,Q=1:fix,2:float,3:sbas,4:dgps,5:single,6:ppp,ns=# of satellites)
%  GPST          latitude(deg) longitude(deg)  height(m)   Q  ns   sdn(m)   sde(m)   sdu(m)  sdne(m)  sdeu(m)  sdun(m) age(s)  ratio
2008      0.000  -32.929585553  151.765234651    63.3733   5  11   4.3174   3.4666   9.1466  -1.9407  -3.4880   3.0222   0.00    0.0
2008      5.000  -32.929582970  151.765236042    64.0976   5  11   4.3187   3.4659   9.1476  -1.9420  -3.4866   3.0305   0.00    0.0
2008     10.000  -32.929585699  151.765237012    63.7072   5  11   4.3199   3.4651   9.1487  -1.9432  -3.4853   3.0388   0.00    0.0
2008     15.000  -32.929582082  151.765234143    63.6688   5  11   4.3212   3.4643   9.1497  -1.9445  -3.4840   3.0471   0.00    0.0
2008     20.000  -32.929581325  151.765233117    63.8748   5  11   4.3224   3.4635   9.1507  -1.9457  -3.4826   3.0554   0.00    0.0
2008     25.000  -32.929579348  151.765234456    63.4897   5  11   4.3237   3.4628   9.1517  -1.9469  -3.4813   3.0636   0.00    0.0
2008     30.000  -32.929582459  151.765236014    63.6630   5  11   4.3250   3.4620   9.1527  -1.9481  -3.4799   3.0719   0.00    0.0
2008     35.000  -32.929586684  151.765233879    62.9721   5  11   4.3263   3.4612   9.1537  -1.9493  -3.4786   3.0801   0.00    0.0
2008     40.000  -32.929580950  151.765236742    63.6314   5  11   4.3276   3.4605   9.1546  -1.9505  -3.4772   3.0883   0.00    0.0
2008     45.000  -32.929583281  151.765233493    63.1373   5  11   4.3288   3.4597   9.1556  -1.9518  -3.4758   3.0964   0.00    0.0
2008     50.000  -32.929585452  151.765233972    63.0447   5  11   4.3301   3.4589   9.1566  -1.9530  -3.4745   3.1046   0.00    0.0
2008     55.000  -32.929582385  151.765230318    63.8040   5  11   4.3314   3.4581   9.1576  -1.9541  -3.4731   3.1128   0.00    0.0
2008     60.000  -32.929583735  151.765236598    63.9094   5  11   4.3328   3.4574   9.1585  -1.9553  -3.4717   3.1209   0.00    0.0
2008     65.000  -32.929582353  151.765234574    63.5612   5  11   4.3341   3.4566   9.1595  -1.9565  -3.4704   3.1290   0.00    0.0
2008     70.000  -32.929586015  151.765236752    63.8756   5  11   4.3354   3.4558   9.1605  -1.9577  -3.4690   3.1371   0.00    0.0
2008     75.000  -32.929587850  151.765236192    63.0646   5  11   4.3367   3.4551   9.1614  -1.9589  -3.4676   3.1452   0.00    0.0
2008     80.000  -32.929585955  151.765232682    62.6315   5  11   4.3380   3.4543   9.1624  -1.9601  -3.4662   3.1532   0.00    0.0
2008     85.000  -32.929586886  151.765234652    63.3426   5  11   4.3394   3.4535   9.1633  -1.9612  -3.4648   3.1613   0.00    0.0
2008     90.000  -32.929585773  151.765233270    62.6761   5  11   4.3407   3.4528   9.1643  -1.9624  -3.4634   3.1693   0.00    0.0
2008     95.000  -32.929582945  151.765234403    63.3928   5  11   4.3421   3.4520   9.1652  -1.9636  -3.4620   3.1773   0.00    0.0
2008    100.000  -32.929585386  151.765233661    63.7458   5  11   4.3434   3.4512   9.1662  -1.9647  -3.4606   3.1853   0.00    0.0
2008    105.000  -32.929586451  151.765235831    63.6624   5  11   4.3448   3.4505   9.1671  -1.9659  -3.4592   3.1933   0.00    0.0
2008    110.000  -32.929587242  151.765229622    62.8829   5  11   4.3462   3.4497   9.1680  -1.9670  -3.4578   3.2012   0.00    0.0
2008    115.000  -32.929586958  151.765231741    63.0972   5  11   4.3475   3.4489   9.1689  -1.9681  -3.4564   3.2092   0.00    0.0
2008    120.000  -32.929583859  151.765232564    63.5876   5  11   4.3489   3.4482   9.1699  -1.9693  -3.4550   3.2171   0.00    0.0
2008    125.000  -32.929583107  151.765232267    63.5807   5  11   4.3503   3.4474   9.1708  -1.9704  -3.4535   3.2250   0.00    0.0
2008    130.000  -32.929588740  151.765232756    63.1710   5  11   4.3517   3.4466   9.1717  -1.9715  -3.4521   3.2329   0.00    0.0
2008    135.000  -32.929582037  151.765230357    63.8432   5  11   4.3531   3.4459   9.1726  -1.9727  -3.4507   3.2408   0.00    0.0
2008    140.000  -32.929585533  151.765231705    63.3237   5  11   4.3545   3.4451   9.1735  -1.9738  -3.4492   3.2487   0.00    0.0
2008    145.000  -32.929586691  151.765235155    62.5416   5  11   4.3559   3.4443   9.1744  -1.9749  -3.4478   3.2565   0.00    0.0
2008    150.000  -32.929582484  151.765231588    63.2159   5  11   4.3573   3.4436   9.1753  -1.9760  -3.4464   3.2644   0.00    0.0
2008    155.000  -32.929583900  151.765230427    63.5587   5  11   4.3587   3.4428   9.1762  -1.9771  -3.4449   3.2722   0.00    0.0
2008    160.000  -32.929588398  151.765232253    63.6031   5  11   4.3601   3.4420   9.1771  -1.9782  -3.4435   3.2800   0.00    0.0
2008    165.000  -32.929588106  151.765232948    63.3623   5  11   4.3616   3.4413   9.1780  -1.9793  -3.4420   3.2878   0.00    0.0
2008    170.000  -32.929581382  151.765233847    63.1431   5  11   4.3630   3.4405   9.1788  -1.9804  -3.4406   3.2956   0.00    0.0
2008    175.000  -32.929585240  151.765232692    63.0617   5  11   4.3645   3.4398   9.1797  -1.9815  -3.4391   3.3033   0.00    0.0
2008    180.000  -32.929586359  151.765234772    63.4715   5  11   4.3659   3.4390   9.1806  -1.9825  -3.4377   3.3111   0.00    0.0
2008    185.000  -32.929587854  151.765236143    63.4046   5  11   4.3674   3.4382   9.1815  -1.9836  -3.4362   3.3188   0.00    0.0
2008    190.000  -32.929584915  151.765234361    63.7706   5  11   4.3688   3.4375   9.1823  -1.9847  -3.4347   3.3265   0.00    0.0
2008    195.000  -32.929586836  151.765231865    63.4910   5  11   4.3703   3.4367   9.1832  -1.9858  -3.4332   3.3342   0.00    0.0
2008    200.000  -32.929585937  151.765236911    63.3091   5  11   4.3718   3.4360   9.1840  -1.9868  -3.4318   3.3419   0.00    0.0
2008    205.000  -32.929588731  151.765235081    63.1538   5  11   4.3732   3.4352   9.1849  -1.9879  -3.4303   3.3496   0.00    0.0
2008    210.000  -32.929586114  151.765233063    63.3395   5  11   4.3747   3.4344   9.1857  -1.9889  -3.4288   3.3572   0.00    0.0
2008    215.000  -32.929584183  151.765236284    63.5842   5  11   4.3762   3.4337   9.1866  -1.9900  -3.4273   3.3649   0.00    0.0
2008    220.000  -32.929587957  151.765234157    62.7090   5  11   4.3777   3.4329   9.1874  -1.9910  -3.4258   3.3725   0.00    0.0
2008    225.000  -32.929586021  151.765233128    64.1653   5  11   4.3792   3.4322   9.1883  -1.9920  -3.4243   3.3801   0.00    0.0
2008    230.000  -32.929586979  151.765230857    63.9363   5  11   4.3807   3.4314   9.1891  -1.9931  -3.4228   3.3877   0.00    0.0
2008    235.000  -32.929587849  151.765235076    63.4677   5  11   4.3822   3.4306   9.1899  -1.9941  -3.4213   3.3953   0.00    0.0
2008    240.000  -32.929590170  151.765236053    63.6089   5  11   4.3837   3.4299   9.1908  -1.9951  -3.4198   3.4029   0.00    0.0
2008    245.000  -32.929587405  151.765233374    63.8040   5  11   4.3853   3.4291   9.1916  -1.9961  -3.4183   3.4104   0.00    0.0
2008    250.000  -32.929587602  151.765231143    64.6365   5  11   4.3868   3.4284   9.1924  -1.9972  -3.4168   3.4180   0.00    0.0
2008    255.000  -32.929587886  151.765232865    63.7413   5  11   4.3883   3.4276   9.1932  -1.9982  -3.4152   3.4255   0.00    0.0
2008    260.000  -32.929595000  151.765230921    63.6425   5  11   4.3899   3.4268   9.1940  -1.9992  -3.4137   3.4330   0.00    0.0
2008    265.000  -32.929588779  151.765235196    63.7114   5  11   4.3914   3.4261   9.1948  -2.0002  -3.4122   3.4405   0.00    0.0
2008    270.000  -32.929588970  151.765233467    63.7346   5  11   4.3930   3.4253   9.1956  -2.0012  -3.4107   3.4480   0.00    0.0
2008    275.000  -32.929592700  151.765234312    64.5014   5  11   4.3945   3.4246   9.1964  -2.0021  -3.4091   3.4555   0.00    0.0
2008    280.000  -32.929585911  151.765234705    64.6256   5  11   4.3961   3.4238   9.1972  -2.0031  -3.4076   3.4629   0.00    0.0
2008    285.000  -32.929588214  151.765231833    64.0191   5  11   4.3976   3.4231   9.1980  -2.0041  -3.4060   3.4704   0.00    0.0
2008    290.000  -32.929590730  151.765231938    63.6488   5  11   4.3992   3.4223   9.1988  -2.0051  -3.4045   3.4778   0.00    0.0
2008    295.000  -32.929589896  151.765231655    63.8075   5  11   4.4008   3.4216   9.1996  -2.0060  -3.4029   3.4852   0.00    0.0
2008    300.000  -32.929587988  151.765230394    64.3929   5  11   4.4024   3.4208   9.2004  -2.0070  -3.4014   3.4926   0.00    0.0
2008    305.000  -32.929587440  151.765233723    63.6378   5  11   4.4040   3.4200   9.2011  -2.0080  -3.3998   3.5000   0.00    0.0
2008    310.000  -32.929580818  151.765229944    63.6388   5  10   5.5774   3.5585   9.4869  -2.7216  -3.0452   2.0996   0.00    0.0
2008    315.000  -32.929577751  151.765230005    63.6835   5  10   5.5784   3.5577   9.4878  -2.7221  -3.0434   2.1114   0.00    0.0
2008    320.000  -32.929579121  151.765232830    63.6840   5  10   5.5794   3.5570   9.4888  -2.7226  -3.0416   2.1231   0.00    0.0
2008    325.000  -32.929578984  151.765227863    63.1724   5  10   5.5804   3.5562   9.4897  -2.7231  -3.0397   2.1349   0.00    0.0
2008    330.000  -32.929581580  151.765227310    63.5812   5  10   5.5814   3.5554   9.4907  -2.7236  -3.0379   2.1465   0.00    0.0
2008    335.000  -32.929579852  151.765229539    62.8532   5  10   5.5823   3.5547   9.4916  -2.7241  -3.0360   2.1581   0.00    0.0
2008    340.000  -32.929582603  151.765231454    62.9608   5  10   5.5833   3.5539   9.4925  -2.7246  -3.0342   2.1697   0.00    0.0
2008    345.000  -32.929579309  151.765230567    63.8341   5  10   5.5843   3.5531   9.4935  -2.7251  -3.0323   2.1812   0.00    0.0
2008    350.000  -32.929578867  151.765230082    63.4819   5  10   5.5853   3.5524   9.4944  -2.7255  -3.0305   2.1927   0.00    0.0
2008    355.000  -32.929580501  151.765231617    62.6576   5  10   5.5863   3.5516   9.4953  -2.7260  -3.0286   2.2042   0.00    0.0
2008    360.000  -32.929579930  151.765230896    62.7535   5  10   5.5873   3.5508   9.4962  -2.7265  -3.0268   2.2155   0.00    0.0
2008    365.000  -32.929579333  151.765232546    61.8441   5  10   5.5883   3.5501   9.4971  -2.7269  -3.0249   2.2269   0.00    0.0
2008    370.000  -32.929578653  151.765230145    63.0085   5  10   5.5892   3.5493   9.4980  -2.7274  -3.0230   2.2382   0.00    0.0
2008    375.000  -32.929578909  151.765233243    63.1456   5  10   5.5902   3.5485   9.4989  -2.7279  -3.0212   2.2495   0.00    0.0
2008    380.000  -32.929575807  151.765233186    63.2162   5  10   5.5912   3.5478   9.4997  -2.7283  -3.0193   2.2607   0.00    0.0
2008    385.000  -32.929574447  151.765230757    62.6038   5  10   5.5922   3.5470   9.5006  -2.7287  -3.0174   2.2719   0.00    0.0
2008    390.000  -32.929576994  151.765229351    62.9211   5  10   5.5932   3.5462   9.5015  -2.7292  -3.0156   2.2830   0.00    0.0
2008    395.000  -32.929576544  151.765226398    62.5538   5  10   5.5942   3.5455   9.5023  -2.7296  -3.0137   2.2941   0.00    0.0
2008    400.000  -32.929578554  151.765228614    63.1695   5  10   5.5952   3.5447   9.5032  -2.7300  -3.0118   2.3052   0.00    0.0
2008    405.000  -32.929577551  151.765226654    62.8426   5  10   5.5962   3.5439   9.5040  -2.7305  -3.0099   2.3162   0.00    0.0
2008    410.000  -32.929574284  151.765231649    63.1892   5  10   5.5972   3.5432   9.5048  -2.7309  -3.0080   2.3272   0.00    0.0
2008    415.000  -32.929574124  151.765230795    62.8090   5  10   5.5981   3.5424   9.5057  -2.7313  -3.0061   2.3382   0.00    0.0
2008    420.000  -32.929574812  151.765228340    62.9379   5  10   5.5991   3.5416   9.5065  -2.7317  -3.0042   2.3491   0.00    0.0
2008    425.000  -32.929579514  151.765229205    62.6674   5  10   5.6001   3.5409   9.5073  -2.7321  -3.0023   2.3600   0.00    0.0
2008    430.000  -32.929576842  151.765230272    62.3008   5  10   5.6011   3.5401   9.5081  -2.7325  -3.0004   2.3708   0.00    0.0
2008    435.000  -32.929580732  151.765229351    62.4093   5  10   5.6021   3.5393   9.5089  -2.7329  -2.9985   2.3816   0.00    0.0
2008    440.000  -32.929576583  151.765230894    63.4266   5  10   5.6031   3.5386   9.5097  -2.7333  -2.9966   2.3924   0.00    0.0
2008    445.000  -32.929576555  151.765230680    62.8804   5  10   5.6041   3.5378   9.5105  -2.7336  -2.9947   2.4031   0.00    0.0
2008    450.000  -32.929578989  151.765229897    63.0370   5  10   5.6051   3.5370   9.5113  -2.7340  -2.9928   2.4138   0.00    0.0
2008    455.000  -32.929579032  151.765227429    62.5949   5  10   5.6061   3.5363   9.5121  -2.7344  -2.9909   2.4245   0.00    0.0
2008    460.000  -32.929576189  151.765227180    62.6054   5  10   5.6071   3.5355   9.5129  -2.7347  -2.9890   2.4351   0.00    0.0
2008    465.000  -32.929579951  151.765225485    62.5273   5  10   5.6081   3.5347   9.5136  -2.7351  -2.9871   2.4457   0.00    0.0
2008    470.000  -32.929579807  151.765226433    62.8832   5  10   5.6091   3.5340   9.5144  -2.7354  -2.9852   2.4563   0.00    0.0
2008    475.000  -32.929577131  151.765229323    63.4704   5  10   5.6101   3.5332   9.5151  -2.7358  -2.9832   2.4668   0.00    0.0
2008    480.000  -32.929576809  151.765229421    63.3800   5  10   5.6111   3.5324   9.5159  -2.7361  -2.9813   2.4773   0.00    0.0
2008    485.000  -32.929581513  151.765228608    62.5740   5  10   5.6121   3.5317   9.5166  -2.7364  -2.9794   2.4878   0.00    0.0
2008    490.000  -32.929584172  151.765229074    62.2650   5  10   5.6131   3.5309   9.5174  -2.7368  -2.9774   2.4982   0.00    0.0
2008    495.000  -32.929583896  151.765231009    62.3352   5  10   5.6141   3.5301   9.5181  -2.7371  -2.9755   2.5086   0.00    0.0
2008    500.000  -32.929583822  151.765228704    62.9027   5  10   5.6151   3.5294   9.5188  -2.7374  -2.9736   2.5190   0.00    0.0
2008    505.000  -32.929576236  151.765228679    63.1839   5  10   5.6161   3.5286   9.5195  -2.7377  -2.9716   2.5293   0.00    0.0
2008    510.000  -32.929583709  151.765233076    62.8415   5  10   5.6171   3.5278   9.5202  -2.7380  -2.9697   2.5396   0.00    0.0
2008    515.000  -32.929585334  151.765229289    62.8040   5  10   5.6181   3.5271   9.5209  -2.7383  -2.9677   2.5499   0.00    0.0
2008    520.000  -32.929584998  151.765228686    62.3248   5  10   5.6191   3.5263   9.5216  -2.7386  -2.9658   2.5602   0.00    0.0
2008    525.000  -32.929586351  151.765231080    61.7773   5  10   5.6201   3.5255   9.5223  -2.7389  -2.9638   2.5704   0.00    0.0
2008    530.000  -32.929588465  151.765229609    62.3897   5  10   5.6211   3.5248   9.5230  -2.7392  -2.9618   2.5806   0.00    0.0
2008    535.000  -32.929588448  151.765230962    62.6419   5  10   5.6221   3.5240   9.5237  -2.7395  -2.9599   2.5907   0.00    0.0
2008    540.000  -32.929584696  151.765232775    62.9958   5  10   5.6231   3.5232   9.5244  -2.7397  -2.9579   2.6009   0.00    0.0
2008    545.000  -32.929586570  151.765231902    63.2727   5  10   5.6241   3.5225   9.5251  -2.7400  -2.9559   2.6110   0.00    0.0
2008    550.000  -32.929585260  151.765231571    63.1236   5  10   5.6251   3.5217   9.5257  -2.7403  -2.9540   2.6210   0.00    0.0
2008    555.000  -32.929585147  151.765228353    62.8567   5  10   5.6261   3.5209   9.5264  -2.7405  -2.9520   2.6311   0.00    0.0
2008    560.000  -32.929584296  151.765230590    62.3124   5  10   5.6271   3.5202   9.5270  -2.7408  -2.9500   2.6411   0.00    0.0
2008    565.000  -32.929587085  151.765232606    62.7083   5  10   5.6281   3.5194   9.5277  -2.7410  -2.9480   2.6511   0.00    0.0
2008    570.000  -32.929587517  151.765232968    62.7720   5  10   5.6291   3.5186   9.5283  -2.7412  -2.9460   2.6610   0.00    0.0
2008    575.000  -32.929583050  151.765230662    63.5605   5  10   5.6301   3.5179   9.5289  -2.7415  -2.9440   2.6709   0.00    0.0
2008    580.000  -32.929584364  151.765231377    62.7508   5  10   5.6311   3.5171   9.5296  -2.7417  -2.9420   2.6808   0.00    0.0
2008    585.000  -32.929587058  151.765233495    62.7108   5  10   5.6321   3.5163   9.5302  -2.7419  -2.9400   2.6907   0.00    0.0
2008    590.000  -32.929584600  151.765231356    62.3850   5  10   5.6331   3.5156   9.5308  -2.7421  -2.9380   2.7006   0.00    0.0
2008    595.000  -32.929581844  151.765228882    62.7342   5  10   5.6341   3.5148   9.5314  -2.7423  -2.9360   2.7104   0.00    0.0
2008    600.000  -32.929583627  151.765232640    62.6801   5  10   5.6351   3.5140   9.5320  -2.7425  -2.9340   2.7202   0.00    0.0
2008    605.000  -32.929581139  151.765229821    62.9538   5  10   5.6362   3.5133   9.5326  -2.7427  -2.9320   2.7299   0.00    0.0
2008    610.000  -32.929582606  151.765229446    63.2397   5  10   5.6372   3.5125   9.5332  -2.7429  -2.9300   2.7397   0.00    0.0
2008    615.000  -32.929582065  151.765228496    62.5859   5  10   5.6382   3.5117   9.5338  -2.7431  -2.9280   2.7494   0.00    0.0
2008    620.000  -32.929580954  151.765229120    62.7489   5  10   5.6392   3.5109   9.5344  -2.7433  -2.9259   2.7591   0.00    0.0
2008    625.000  -32.929581860  151.765227910    62.9310   5  10   5.6402   3.5102   9.5350  -2.7434  -2.9239   2.7687   0.00    0.0
2008    630.000  -32.929582144  151.765230746    62.9354   5  10   5.6412   3.5094   9.5355  -2.7436  -2.9219   2.7784   0.00    0.0
2008    635.000  -32.929581054  151.765230202    63.3567   5  10   5.6422   3.5086   9.5361  -2.7438  -2.9198   2.7880   0.00    0.0
2008    640.000  -32.929579663  151.765227390    62.8989   5  10   5.6433   3.5079   9.5367  -2.7439  -2.9178   2.7976   0.00    0.0
2008    645.000  -32.929579994  151.765226630    62.1953   5  10   5.6443   3.5071   9.5372  -2.7441  -2.9158   2.8071   0.00    0.0
2008    650.000  -32.929580410  151.765225587    62.2733   5  10   5.6453   3.5063   9.5378  -2.7442  -2.9137   2.8167   0.00    0.0
2008    655.000  -32.929580321  151.765225668    62.5305   5  10   5.6463   3.5056   9.5383  -2.7443  -2.9117   2.8262   0.00    0.0
2008    660.000  -32.929578569  151.765223013    63.0294   5  10   5.6473   3.5048   9.5388  -2.7445  -2.9096   2.8357   0.00    0.0
2008    665.000  -32.929578550  151.765227197    63.0161   5  10   5.6484   3.5040   9.5394  -2.7446  -2.9075   2.8451   0.00    0.0
2008    670.000  -32.929579303  151.765227530    63.3941   5  10   5.6494   3.5033   9.5399  -2.7447  -2.9055   2.8546   0.00    0.0
2008    675.000  -32.929579246  151.765224446    63.5145   5  10   5.6504   3.5025   9.5404  -2.7448  -2.9034   2.8640   0.00    0.0
2008    680.000  -32.929582537  151.765226512    62.8365   5  10   5.6514   3.5017   9.5409  -2.7449  -2.9013   2.8734   0.00    0.0
2008    685.000  -32.929585529  151.765226942    62.0168   5  10   5.6525   3.5010   9.5414  -2.7450  -2.8993   2.8827   0.00    0.0
2008    690.000  -32.929582194  151.765228604    63.0162   5  10   5.6535   3.5002   9.5419  -2.7451  -2.8972   2.8921   0.00    0.0
2008    695.000  -32.929583510  151.765227839    63.1055   5  10   5.6545   3.4994   9.5424  -2.7452  -2.8951   2.9014   0.00    0.0
2008    700.000  -32.929581106  151.765227857    63.1605   5  10   5.6555   3.4987   9.5429  -2.7453  -2.8930   2.9107   0.00    0.0
2008    705.000  -32.929583939  151.765231008    62.3946   5  10   5.6566   3.4979   9.5434  -2.7454  -2.8909   2.9200   0.00    0.0
2008    710.000  -32.929583410  151.765228851    62.3618   5  10   5.6576   3.4971   9.5439  -2.7454  -2.8888   2.9292   0.00    0.0
2008    715.000  -32.929584033  151.765227203    62.2327   5  10   5.6586   3.4964   9.5444  -2.7455  -2.8867   2.9384   0.00    0.0
2008    720.000  -32.929579170  151.765225291    63.0703   5  10   5.6596   3.4956   9.5448  -2.7455  -2.8846   2.9476   0.00    0.0
2008    725.000  -32.929581048  151.765227907    63.6494   5  10   5.6607   3.4948   9.5453  -2.7456  -2.8825   2.9568   0.00    0.0
2008    730.000  -32.929585440  151.765228744    63.2700   5  10   5.6617   3.4941   9.5458  -2.7456  -2.8804   2.9660   0.00    0.0
2008    735.000  -32.929583286  151.765228216    63.4479   5  10   5.6627   3.4933   9.5462  -2.7457  -2.8783   2.9751   0.00    0.0
2008    740.000  -32.929584318  151.765229972    63.1206   5  10   5.6638   3.4925   9.5467  -2.7457  -2.8762   2.9842   0.00    0.0
2008    745.000  -32.929583718  151.765228754    62.5716   5  10   5.6648   3.4917   9.5471  -2.7457  -2.8741   2.9933   0.00    0.0
2008    750.000  -32.929586969  151.765232550    62.8875   5  10   5.6658   3.4910   9.5475  -2.7458  -2.8719   3.0024   0.00    0.0
2008    755.000  -32.929583761  151.765229192    63.3396   5  10   5.6669   3.4902   9.5480  -2.7458  -2.8698   3.0114   0.00    0.0
2008    760.000  -32.929585269  151.765226714    62.8955   5  10   5.6679   3.4894   9.5484  -2.7458  -2.8677   3.0205   0.00    0.0
2008    765.000  -32.929583144  151.765233674    63.0828   5  10   5.6690   3.4887   9.5488  -2.7458  -2.8655   3.0295   0.00    0.0
2008    770.000  -32.929583326  151.765230687    62.9914   5  10   5.6700   3.4879   9.5492  -2.7458  -2.8634   3.0384   0.00    0.0
2008    775.000  -32.929585761  151.765228924    62.7391   5  10   5.6710   3.4871   9.5496  -2.7457  -2.8612   3.0474   0.00    0.0
2008    780.000  -32.929583689  151.765229545    62.3481   5  10   5.6721   3.4864   9.5501  -2.7457  -2.8591   3.0563   0.00    0.0
2008    785.000  -32.929583365  151.765229265    62.8819   5  10   5.6731   3.4856   9.5505  -2.7457  -2.8569   3.0653   0.00    0.0
2008    790.000  -32.929584785  151.765232064    63.3612   5  10   5.6742   3.4848   9.5508  -2.7457  -2.8548   3.0742   0.00    0.0
2008    795.000  -32.929582461  151.765226717    63.4344   5  10   5.6752   3.4840   9.5512  -2.7456  -2.8526   3.0830   0.00    0.0
2008    800.000  -32.929582544  151.765228265    62.6939   5  10   5.6762   3.4833   9.5516  -2.7456  -2.8504   3.0919   0.00    0.0
2008    805.000  -32.929584989  151.765230643    62.6536   5  10   5.6773   3.4825   9.5520  -2.7455  -2.8482   3.1007   0.00    0.0
2008    810.000  -32.929584162  151.765228975    62.9145   5  10   5.6783   3.4817   9.5524  -2.7455  -2.8461   3.1095   0.00    0.0
2008    815.000  -32.929584902  151.765231879    62.7827   5  10   5.6794   3.4810   9.5528  -2.7454  -2.8439   3.1183   0.00    0.0
2008    820.000  -32.929586012  151.765229336    62.8620   5  10   5.6804   3.4802   9.5531  -2.7453  -2.8417   3.1271   0.00    0.0
2008    825.000  -32.929583018  151.765229709    63.2811   5  10   5.6815   3.4794   9.5535  -2.7453  -2.8395   3.1359   0.00    0.0
2008    830.000  -32.929580963  151.765228795    63.1179   5  10   5.6825   3.4787   9.5538  -2.7452  -2.8373   3.1446   0.00    0.0
2008    835.000  -32.929585621  151.765231625    63.0674   5  10   5.6836   3.4779   9.5542  -2.7451  -2.8351   3.1533   0.00    0.0
2008    840.000  -32.929586616  151.765230714    63.1692   5  10   5.6846   3.4771   9.5545  -2.7450  -2.8329   3.1620   0.00    0.0
2008    845.000  -32.929581984  151.765228865    64.3061   5  10   5.6857   3.4763   9.5549  -2.7449  -2.8307   3.1707   0.00    0.0
2008    850.000  -32.929583009  151.765229988    61.6023   5  10   5.6867   3.4756   9.5552  -2.7448  -2.8284   3.1793   0.00    0.0
2008    855.000  -32.929584255  151.765229103    63.0476   5  10   5.6878   3.4748   9.5555  -2.7447  -2.8262   3.1879   0.00    0.0
2008    860.000  -32.929584598  151.765226872    62.6793   5  10   5.6888   3.4740   9.5559  -2.7446  -2.8240   3.1966   0.00    0.0
2008    865.000  -32.929582640  151.765228189    62.8364   5  10   5.6899   3.4733   9.5562  -2.7444  -2.8218   3.2051   0.00    0.0
2008    870.000  -32.929582059  151.765227926    63.1971   5  10   5.6910   3.4725   9.5565  -2.7443  -2.8195   3.2137   0.00    0.0
2008    875.000  -32.929578265  151.765226624    62.7583   5  10   5.6920   3.4717   9.5568  -2.7442  -2.8173   3.2223   0.00    0.0
2008    880.000  -32.929579098  151.765227984    63.0243   5  10   5.6931   3.4709   9.5571  -2.7440  -2.8150   3.2308   0.00    0.0
2008    885.000  -32.929579044  151.765222284    63.4622   5  10   5.6941   3.4702   9.5574  -2.7438  -2.8128   3.2393   0.00    0.0
2008    890.000  -32.929578139  151.765225158    63.2502   5  10   5.6952   3.4694   9.5577  -2.7437  -2.8105   3.2478   0.00    0.0
2008    895.000  -32.929585306  151.765226703    63.3018   5  10   5.6963   3.4686   9.5580  -2.7435  -2.8083   3.2563   0.00    0.0
2008    900.000  -32.929580884  151.765223919    63.5964   5  10   5.6973   3.4678   9.5583  -2.7433  -2.8060   3.2647   0.00    0.0
2008    905.000  -32.929584411  151.765226520    62.8916   5  10   5.6984   3.4671   9.5586  -2.7432  -2.8037   3.2732   0.00    0.0
2008    910.000  -32.929584051  151.765225848    63.2317   5  10   5.6994   3.4663   9.5588  -2.7430  -2.8014   3.2816   0.00    0.0
2008    915.000  -32.929583638  151.765226641    63.1451   5  10   5.7005   3.4655   9.5591  -2.7428  -2.7992   3.2900   0.00    0.0
2008    920.000  -32.929583214  151.765226615    62.7481   5  10   5.7016   3.4648   9.5594  -2.7426  -2.7969   3.2984   0.00    0.0
2008    925.000  -32.929577156  151.765225861    63.1569   5  10   5.7026   3.4640   9.5596  -2.7424  -2.7946   3.3067   0.00    0.0
2008    930.000  -32.929581629  151.765227861    62.0154   5  10   5.7037   3.4632   9.5599  -2.7422  -2.7923   3.3151   0.00    0.0
2008    935.000  -32.929582795  151.765227395    63.6078   5  10   5.7048   3.4624   9.5601  -2.7419  -2.7900   3.3234   0.00    0.0
2008    940.000  -32.929580326  151.765225014    63.5482   5  10   5.7058   3.4617   9.5604  -2.7417  -2.7877   3.3317   0.00    0.0
2008    945.000  -32.929585973  151.765226664    62.4808   5  10   5.7069   3.4609   9.5606  -2.7415  -2.7853   3.3400   0.00    0.0
2008    950.000  -32.929587482  151.765232102    62.9167   5  10   5.7080   3.4601   9.5609  -2.7412  -2.7830   3.3483   0.00    0.0
2008    955.000  -32.929581761  151.765230197    63.8047   5  10   5.7091   3.4593   9.5611  -2.7410  -2.7807   3.3565   0.00    0.0
2008    960.000  -32.929586347  151.765229319    63.9486   5  10   5.7101   3.4586   9.5613  -2.7407  -2.7784   3.3648   0.00    0.0
2008    965.000  -32.929584876  151.765231138    63.7114   5  10   5.7112   3.4578   9.5615  -2.7405  -2.7760   3.3730   0.00    0.0
2008    970.000  -32.929589477  151.765232099    62.7243   5  10   5.7123   3.4570   9.5618  -2.7402  -2.7737   3.3812   0.00    0.0
2008    975.000  -32.929589022  151.765229065    63.4297   5  10   5.7134   3.4562   9.5620  -2.7399  -2.7713   3.3893   0.00    0.0
2008    980.000  -32.929586829  151.765230035    63.3912   5  10   5.7144   3.4555   9.5622  -2.7396  -2.7690   3.3975   0.00    0.0
2008    985.000  -32.929583908  151.765228814    63.2972   5  10   5.7155   3.4547   9.5624  -2.7394  -2.7666   3.4056   0.00    0.0
2008    990.000  -32.929586239  151.765230632    63.3876   5  10   5.7166   3.4539   9.5626  -2.7391  -2.7643   3.4138   0.00    0.0
2008    995.000  -32.929585957  151.765228528    64.2942   5  10   5.7177   3.4531   9.5628  -2.7388  -2.7619   3.4219   0.00    0.0
2008   1000.000  -32.929588321  151.765228775    63.3087   5  10   5.7188   3.4524   9.5630  -2.7385  -2.7595   3.4300   0.00    0.0
2008   1005.000  -32.929582979  151.765227775    64.1123   5  10   5.7199   3.4516   9.5632  -2.7381  -2.7571   3.4380   0.00    0.0
2008   1010.000  -32.929586155  151.765229342    63.9345   5  10   5.7209   3.4508   9.5633  -2.7378  -2.7548   3.4461   0.00    0.0
2008   1015.000  -32.929587144  151.765225629    64.0950   5  10   5.7220   3.4500   9.5635  -2.7375  -2.7524   3.4541   0.00    0.0
2008   1020.000  -32.929585033  151.765227768    64.1711   5  10   5.7231   3.4493   9.5637  -2.7371  -2.7500   3.4621   0.00    0.0
2008   1025.000  -32.929590804  151.765228307    62.8119   5  10   5.7242   3.4485   9.5639  -2.7368  -2.7476   3.4701   0.00    0.0
2008   1030.000  -32.929585654  151.765227932    63.7563   5  10   5.7253   3.4477   9.5640  -2.7365  -2.7452   3.4781   0.00    0.0
2008   1035.000  -32.929585000  151.765224745    63.5910   5  10   5.7264   3.4469   9.5642  -2.7361  -2.7427   3.4861   0.00    0.0
2008   1040.000  -32.929586213  151.765229660    63.5465   5  10   5.7275   3.4462   9.5644  -2.7357  -2.7403   3.4940   0.00    0.0
2008   1045.000  -32.929579540  151.765225244    63.7608   5  10   5.7286   3.4454   9.5645  -2.7354  -2.7379   3.5020   0.00    0.0
2008   1050.000  -32.929584740  151.765229992    63.2006   5  10   5.7296   3.4446   9.5646  -2.7350  -2.7355   3.5099   0.00    0.0
2008   1055.000  -32.929585772  151.765224338    62.9457   5  10   5.7307   3.4438   9.5648  -2.7346  -2.7330   3.5178   0.00    0.0
2008   1060.000  -32.929585666  151.765227310    63.4195   5  10   5.7318   3.4431   9.5649  -2.7342  -2.7306   3.5257   0.00    0.0
2008   1065.000  -32.929584101  151.765224940    63.2322   5  10   5.7329   3.4423   9.5651  -2.7338  -2.7281   3.5335   0.00    0.0
2008   1070.000  -32.929583127  151.765225703    63.8029   5  10   5.7340   3.4415   9.5652  -2.7334  -2.7257   3.5414   0.00    0.0
2008   1075.000  -32.929583724  151.765225610    63.6181   5  10   5.7351   3.4407   9.5653  -2.7330  -2.7232   3.5492   0.00    0.0
2008   1080.000  -32.929584905  151.765226898    63.3993   5  10   5.7362   3.4400   9.5654  -2.7326  -2.7208   3.5570   0.00    0.0
2008   1085.000  -32.929582822  151.765222692    63.8557   5  10   5.7373   3.4392   9.5656  -2.7321  -2.7183   3.5648   0.00    0.0
2008   1090.000  -32.929583440  151.765225491    62.1913   5  10   5.7384   3.4384   9.5657  -2.7317  -2.7158   3.5726   0.00    0.0
2008   1095.000  -32.929581152  151.765224228    62.7032   5  10   5.7395   3.4376   9.5658  -2.7313  -2.7133   3.5803   0.00    0.0
2008   1100.000  -32.929579222  151.765221352    63.2064   5  10   5.7406   3.4368   9.5659  -2.7308  -2.7108   3.5881   0.00    0.0
2008   1105.000  -32.929585642  151.765226443    62.8622   5  10   5.7417   3.4361   9.5660  -2.7304  -2.7083   3.5958   0.00    0.0
2008   1110.000  -32.929586986  151.765229587    63.1021   5  10   5.7428   3.4353   9.5661  -2.7299  -2.7058   3.6035   0.00    0.0
2008   1115.000  -32.929580853  151.765225116    63.3904   5  10   5.7439   3.4345   9.5662  -2.7294  -2.7033   3.6112   0.00    0.0
2008   1120.000  -32.929581904  151.765225038    63.3595   5  10   5.7450   3.4337   9.5663  -2.7289  -2.7008   3.6189   0.00    0.0
2008   1125.000  -32.929583642  151.765225985    63.5259   5  10   5.7461   3.4330   9.5663  -2.7285  -2.6983   3.6266   0.00    0.0
2008   1130.000  -32.929587386  151.765228050    63.2065   5  10   5.7472   3.4322   9.5664  -2.7280  -2.6957   3.6342   0.00    0.0
2008   1135.000  -32.929586584  151.765227689    62.9333   5  10   5.7483   3.4314   9.5665  -2.7275  -2.6932   3.6418   0.00    0.0
2008   1140.000  -32.929588495  151.765227151    63.8369   5  10   5.7495   3.4306   9.5666  -2.7270  -2.6906   3.6495   0.00    0.0
2008   1145.000  -32.929587849  151.765224170    63.2770   5  10   5.7506   3.4299   9.5666  -2.7264  -2.6881   3.6570   0.00    0.0
2008   1150.000  -32.929584910  151.765224906    63.6176   5  10   5.7517   3.4291   9.5667  -2.7259  -2.6855   3.6646   0.00    0.0
2008   1155.000  -32.929586417  151.765227236    63.3748   5  10   5.7528   3.4283   9.5667  -2.7254  -2.6830   3.6722   0.00    0.0
2008   1160.000  -32.929582760  151.765225590    64.0081   5  10   5.7539   3.4275   9.5668  -2.7249  -2.6804   3.6797   0.00    0.0
2008   1165.000  -32.929587084  151.765230370    62.6171   5  10   5.7550   3.4267   9.5668  -2.7243  -2.6778   3.6873   0.00    0.0
2008   1170.000  -32.929586955  151.765225090    63.6988   5  10   5.7561   3.4260   9.5669  -2.7238  -2.6752   3.6948   0.00    0.0
2008   1175.000  -32.929585504  151.765229454    62.9897   5  10   5.7572   3.4252   9.5669  -2.7232  -2.6727   3.7023   0.00    0.0
2008   1180.000  -32.929586586  151.765228129    63.7826   5  10   5.7584   3.4244   9.5670  -2.7226  -2.6701   3.7098   0.00    0.0
2008   1185.000  -32.929584655  151.765228132    63.4162   5  10   5.7595   3.4236   9.5670  -2.7221  -2.6675   3.7172   0.00    0.0
2008   1190.000  -32.929589429  151.765227528    62.7303   5  10   5.7606   3.4228   9.5670  -2.7215  -2.6648   3.7247   0.00    0.0
2008   1195.000  -32.929585903  151.765229851    63.5735   5  10   5.7617   3.4221   9.5671  -2.7209  -2.6622   3.7321   0.00    0.0
